[{"locationId":"6010","locationName":"WHITBOURNE","abbreviation":"WTBN","address":"338 BRIGUS ROAD, BRIGUS JUNCTION, NL, A0B1G0","phone":"(709) 759-2152","latitude":47.37922,"longitude":-53.30064,"timeZone":"","locationType":"NFS","district":"ONTARIO"},{"locationId":"6011","locationName":"ST. JOHNS","abbreviation":"STJN","address":"26 BECLIN ROAD, MOUNT PEARL, NL, A1N5B8","phone":"(709) 745-7521","latitude":47.530892,"longitude":-52.817417,"timeZone":"","locationType":"Station","district":"ONTARIO"},{"locationId":"6021","locationName":"SYDNEY","abbreviation":"SYDN","address":"325 VULCAN AVENUE, SYDNEY, NS, B1P5X1","phone":"(902) 539-5962","latitude":46.146174,"longitude":-60.162892,"timeZone":"","locationType":"Sub Station","district":"ONTARIO"},{"locationId":"6022","locationName":"TRURO","abbreviation":"TURO","address":"44 SPITFIRE ROAD, DEBERT, NS, B0M1G0","phone":"(902) 480-3101","latitude":45.420373,"longitude":-63.46784,"timeZone":"","locationType":"NFS","district":"ONTARIO"},{"locationId":"6023","locationName":"HALIFAX","abbreviation":"HALI","address":"355 WILKINSON AVE, DARTMOUTH, NS, B3B0M6","phone":"(902) 480-3101","latitude":44.723333,"longitude":-63.575837,"timeZone":"","locationType":"Station","district":"ONTARIO"},{"locationId":"6024","locationName":"BRIDGEWATER","abbreviation":"BRIR","address":"936 HWY 325, BLOCKHOUSE, NS, B0J2E0","phone":"(902) 480-3101","latitude":44.438707,"longitude":-64.432756,"timeZone":"","locationType":"NFS","district":"ONTARIO"},{"locationId":"6025","locationName":"YARMOUTH","abbreviation":"YARM","address":"6050 HIGHWAY 101, WEYMOUTH, NS, B0W3T0","phone":"(902) 480-3101","latitude":44.467033,"longitude":-65.963818,"timeZone":"","locationType":"NFS","district":"ONTARIO"},{"locationId":"6026","locationName":"KENTVILLE","abbreviation":"KEVL","address":"1568 HARRINGTON RD, KENTVILLE, NS, B4N3V7","phone":"","latitude":45.066311,"longitude":-64.553445,"timeZone":"","locationType":"NFS","district":"ONTARIO"},{"locationId":"6031","locationName":"CHARLOTTETOWN","abbreviation":"CHTN","address":"1034 BRACKLEY POINT ROAD, HARRINGTON, PE, C0A1H1","phone":"(506) 777-1400","latitude":46.335668,"longitude":-63.160287,"timeZone":"","locationType":"NFS","district":"ONTARIO"},{"locationId":"6050","locationName":"MONCTON","abbreviation":"MONH","address":"81 COMMERCE STREET, MONCTON, NB, E1H2G1","phone":"(506) 777-1400","latitude":46.135768,"longitude":-64.71756,"timeZone":"","locationType":"Hub","district":"ONTARIO"},{"locationId":"6051","locationName":"MONCTON LOCAL","abbreviation":"MONC","address":"81 COMMERCE STREET, MONCTON, NB, E1H2G1","phone":"(506) 777-1400","latitude":46.135768,"longitude":-64.71756,"timeZone":"","locationType":"Hub Local","district":"ONTARIO"},{"locationId":"6052","locationName":"BATHURST","abbreviation":"BATH","address":"1880 Fournier Crt, BATHURST, NB, E2A4W7","phone":"(506) 546-9281","latitude":47.602578,"longitude":-65.630968,"timeZone":"","locationType":"Sub Station","district":"ONTARIO"},{"locationId":"6053","locationName":"ST. JOHN","abbreviation":"SJHN","address":"991 FAIRVILLE BLVD, APPLE SELF STORAGE, SAINT JOHN, NB, E2M5T9","phone":"","latitude":45.247975,"longitude":-66.104518,"timeZone":"","locationType":"NFS","district":"ONTARIO"},{"locationId":"6057","locationName":"WOODSTOCK","abbreviation":"WDST","address":"157 HEMLOCK STREET, LOWER WOODSTOCK, NB, E7M4E6","phone":"(506) 328-6398","latitude":46.12555,"longitude":-67.600904,"timeZone":"","locationType":"Sub Station","district":"ONTARIO"},{"locationId":"6070","locationName":"NEW RICHMOND","abbreviation":"NRMD","address":"150 RTE 132 O, NEW RICHMOND, QC, G0C2B0","phone":"(418) 724-0788","latitude":48.178221,"longitude":-65.85229,"timeZone":"","locationType":"NFS","district":"ONTARIO"},{"locationId":"6074","locationName":"BAIE-COMEAU","abbreviation":"BAIE","address":"625 BLVD. LAFLECHE, UNIT 313, BAIE-COMEAU, QC, G5C1C5","phone":"(418) 690-2251","latitude":49.201855,"longitude":-68.254418,"timeZone":"","locationType":"NFS","district":"ONTARIO"},{"locationId":"6075","locationName":"RIMOUSKI","abbreviation":"RIMO","address":"210 RUE DES FABRIQUANTS, RIMOUSKI, QC, G5M0B3","phone":"(418) 724-0788","latitude":48.465282,"longitude":-68.49366,"timeZone":"","locationType":"Station","district":"ONTARIO"},{"locationId":"6076","locationName":"QUEBEC CITY","abbreviation":"QUEB","address":"125 RUE DE HAMBOURG, ST-AUGUSTIN-DE-DESMAURES, QC, G3A1S6","phone":"(418) 878-4556","latitude":46.756414,"longitude":-71.450454,"timeZone":"","locationType":"Station","district":"ONTARIO"},{"locationId":"6077","locationName":"CHICOUTIMI","abbreviation":"CHIU","address":"2700 TALBOT BOULEVARD, DOOR 10 A, CHICOUTIMI, QC, G7H5B1","phone":"(418) 690-2251","latitude":48.379803,"longitude":-71.089073,"timeZone":"","locationType":"Station","district":"ONTARIO"},{"locationId":"6078","locationName":"RIVIERE-DU-LOUP","abbreviation":"RDLP","address":"142 CHEM. DES RAYMOND, RIVIERE-DU-LOUP, QC, G5R5X9","phone":"","latitude":47.837566,"longitude":-69.502191,"timeZone":"","locationType":"NFS","district":"ONTARIO"},{"locationId":"6102","locationName":"DRUMMONDVILLE","abbreviation":"DRUM","address":"2550 RUE ALFRED-NOBEL, DRUMMONDVILLE, QC, J2A0L5","phone":"(819) 471-4044","latitude":45.82593,"longitude":-72.433044,"timeZone":"","locationType":"Station","district":"ONTARIO"},{"locationId":"6103","locationName":"MONTREAL","abbreviation":"MNTR","address":"2000 CHEMIN ST-FRANCOIS, DORVAL, QC, H9P1K2","phone":"(514) 683-7676","latitude":45.476524,"longitude":-73.77725,"timeZone":"","locationType":"Hub","district":"ONTARIO"},{"locationId":"6104","locationName":"MONTREAL_LOCAL","abbreviation":"MNTL","address":"2000 CHEMIN ST-FRANCOIS, DORVAL, QC, H9P1K2","phone":"(514) 683-7676","latitude":45.476524,"longitude":-73.77725,"timeZone":"","locationType":"Hub Local","district":"ONTARIO"},{"locationId":"6105","locationName":"SAINT BRUNO","abbreviation":"STBR","address":"1100 RUE PARENT, SAINT-BRUNO, QC, J3V6L8","phone":"(450) 653-2729","latitude":45.526597,"longitude":-73.367116,"timeZone":"","locationType":"Station","district":"ONTARIO"},{"locationId":"6106","locationName":"JOLIETTE","abbreviation":"JOLE","address":"1539 RUE DE LANAUDIERE, SAINT-PAUL, QC, J6E3P4","phone":"(514) 683-7676","latitude":46.007745,"longitude":-73.457169,"timeZone":"","locationType":"NFS","district":"ONTARIO"},{"locationId":"6107","locationName":"SAINT JEROME","abbreviation":"STJR","address":"150 CHEMIN DES BATISSEURS, SAINTE-AGATHE-DES-MONTS, QC, J8C3X8","phone":"(514) 683-7676","latitude":46.067546,"longitude":-74.286652,"timeZone":"","locationType":"NFS","district":"ONTARIO"},{"locationId":"6112","locationName":"OTTAWA","abbreviation":"OTTA","address":"985 MOODIE DR, NEPEAN, ON, K2R1H4","phone":"(613) 356-2000","latitude":45.279689,"longitude":-75.806581,"timeZone":"","locationType":"Station","district":"ONTARIO"},{"locationId":"6113","locationName":"EAST OTTAWA","abbreviation":"EOTT","address":"2400 SHEFFIELD ROAD, OTTAWA, ON, K1B5P6","phone":"(613) 842-6175","latitude":45.409945,"longitude":-75.610452,"timeZone":"","locationType":"Station","district":"ONTARIO"},{"locationId":"6114","locationName":"NEPEAN","abbreviation":"NEPN","address":"1031 MOODIE DR, NEPEAN, ON, K2R1H4","phone":"(613) 356-2000","latitude":45.273846,"longitude":-75.804962,"timeZone":"","locationType":"NFS","district":"ONTARIO"},{"locationId":"6117","locationName":"KINGSTON","abbreviation":"KIGT","address":"2880 PRINCESS ST, GET SMART STORAGE, KINGSTON, ON, K7P0K3","phone":"(613) 961-3170","latitude":44.260757,"longitude":-76.588249,"timeZone":"","locationType":"NFS","district":"ONTARIO"},{"locationId":"6118","locationName":"BELLEVILLE","abbreviation":"BLVE","address":"634 COLLEGE STREET EAST, BELLEVILLE, ON, K8N5T2","phone":"(613) 961-3170","latitude":44.191542,"longitude":-77.348953,"timeZone":"","locationType":"Station","district":"ONTARIO"},{"locationId":"6119","locationName":"PEMBROKE","abbreviation":"PMBK","address":"1000 OLYMPIC DR, PEMBROKE, ON, K8A0E1","phone":"(613) 356-2000","latitude":45.823856,"longitude":-77.122903,"timeZone":"","locationType":"NFS","district":"ONTARIO"},{"locationId":"6120","locationName":"WHITBY","abbreviation":"WTBY","address":"2001 FORBES STREET, WHITBY, ON, L1N7V4","phone":"(905) 728-7733","latitude":43.861736,"longitude":-78.893142,"timeZone":"","locationType":"Station","district":"ONTARIO"},{"locationId":"6121","locationName":"SCARBOROUGH","abbreviation":"SCAR","address":"385 PASSMORE AVE, SCARBOROUGH, ON, M1V4B3","phone":"(416) 321-2002","latitude":43.828069,"longitude":-79.256403,"timeZone":"","locationType":"Station","district":"ONTARIO"},{"locationId":"6124","locationName":"TORONTO","abbreviation":"TORO","address":"45 DI POCE WAY, WOODBRIDGE, ON, L4H4J4","phone":"(905) 265-4750","latitude":43.802677,"longitude":-79.632502,"timeZone":"","locationType":"Hub","district":"ONTARIO"},{"locationId":"6125","locationName":"TORONTO_LOCAL","abbreviation":"TORL","address":"45 DI POCE WAY, WOODBRIDGE, ON, L4H4J4","phone":"(905) 265-4747","latitude":43.802677,"longitude":-79.632502,"timeZone":"","locationType":"Hub Local","district":"ONTARIO"},{"locationId":"6126","locationName":"WELLAND","abbreviation":"WELL","address":"7972 THOROLD TOWNLINE RD, THOROLD, ON, L2H2Y6","phone":"(289) 649-3000","latitude":43.06041,"longitude":-79.17412,"timeZone":"","locationType":"NFS","district":"ONTARIO"},{"locationId":"6128","locationName":"STONEY CREEK","abbreviation":"STNY","address":"25 TOPS DRIVE, GRIMSBY, ON, L3M4E8","phone":"(289) 649-3000","latitude":43.209205,"longitude":-79.617579,"timeZone":"","locationType":"Station","district":"ONTARIO"},{"locationId":"6129","locationName":"BARRIE","abbreviation":"BARI","address":"1 BIG BAY POINT ROAD, BARRIE, ON, L4N8M5","phone":"(705) 721-2300","latitude":44.347499,"longitude":-79.685302,"timeZone":"","locationType":"Station","district":"ONTARIO"},{"locationId":"6142","locationName":"KITCHENER","abbreviation":"KITC","address":"80 GODDARD CRESCENT, CAMBRIDGE, ON, N3E0A9","phone":"(519) 650-2130","latitude":43.420474,"longitude":-80.358102,"timeZone":"","locationType":"Station","district":"ONTARIO"},{"locationId":"6143","locationName":"BRANTFORD","abbreviation":"BTFD","address":"319 BISHOPSGATE ROAD, PRECISION SPECIALIZED INC, BURFORD, ON, N0E1A0","phone":"","latitude":43.095603,"longitude":-80.403375,"timeZone":"","locationType":"NFS","district":"ONTARIO"},{"locationId":"6144","locationName":"OWEN SOUND","abbreviation":"OWSD","address":"65 MCNABB ST, CHATSWORTH, ON, N0H1G0","phone":"(519) 650-2130","latitude":44.452091,"longitude":-80.8954,"timeZone":"","locationType":"NFS","district":"ONTARIO"},{"locationId":"6145","locationName":"LONDON","abbreviation":"LNDN","address":"1650 WILTON GROVE ROAD, LONDON, ON, N6N0A4","phone":"(519) 644-4000","latitude":42.931817,"longitude":-81.162014,"timeZone":"","locationType":"Station","district":"ONTARIO"},{"locationId":"6147","locationName":"SARNIA","abbreviation":"SARN","address":"720 DEVINE STREET, SARNIA, ON, N7T1X2","phone":"(519) 644-4000","latitude":42.964757,"longitude":-82.385834,"timeZone":"","locationType":"NFS","district":"ONTARIO"},{"locationId":"6149","locationName":"WINDSOR","abbreviation":"WIND","address":"5600 ROSCON INDUSTRIAL DR, OLDCASTLE, ON, N0R1L0","phone":"(519) 737-7937","latitude":42.233322,"longitude":-82.977403,"timeZone":"","locationType":"Station","district":"ONTARIO"},{"locationId":"6161","locationName":"GRAVENHURST","abbreviation":"GRHT","address":"1629 WINHARA ROAD, GRAVENHURST, ON, P1P1R1","phone":"(705) 797-1347","latitude":44.984455,"longitude":-79.316073,"timeZone":"","locationType":"NFS","district":"ONTARIO"},{"locationId":"6162","locationName":"KIRKLAND LAKE","abbreviation":"KIRK","address":"155 ARCHER DRIVE, KIRKLAND LAKE, ON, P2N3H9","phone":"(705) 567-1591","latitude":43.830649,"longitude":-79.004898,"timeZone":"","locationType":"Station","district":"ONTARIO"},{"locationId":"6163","locationName":"SUDBURY","abbreviation":"SUDB","address":"1351 KELLY LAKE ROAD, SUDBURY, ON, P3E5P5","phone":"(705) 523-6970","latitude":46.463718,"longitude":-81.029337,"timeZone":"","locationType":"Station","district":"ONTARIO"},{"locationId":"6164","locationName":"NORTH BAY","abbreviation":"NBAY","address":"281 WALLACE RD, NORTH BAY, ON, P1A2W8","phone":"(705) 523-6970","latitude":46.322305,"longitude":-79.425196,"timeZone":"","locationType":"NFS","district":"ONTARIO"},{"locationId":"6166","locationName":"SAULT SAINT MARIE","abbreviation":"SSMR","address":"7950 HIGHWAY 17 EAST, HUSKY STATION, DESBARATS, ON, P0R1E0","phone":"(705) 523-6970","latitude":46.344854,"longitude":-83.923472,"timeZone":"","locationType":"NFS","district":"ONTARIO"},{"locationId":"6167","locationName":"THUNDER BAY","abbreviation":"THUN","address":"1115 PREMIER WAY, THUNDER BAY, ON, P7B0A3","phone":"(807) 577-1383","latitude":48.410708,"longitude":-89.285611,"timeZone":"","locationType":"Station","district":"PROVINCIAL"},{"locationId":"6169","locationName":"KENORA","abbreviation":"KENO","address":"661 9th Street North, Building 3, Unit 2, KENORA, ON, P9N2S9","phone":"(204) 654-6010","latitude":49.775581,"longitude":-94.484816,"timeZone":"","locationType":"Station","district":"PROVINCIAL"},{"locationId":"6182","locationName":"WINNIPEG_LOCAL","abbreviation":"WNPG","address":"365 BLACK DIAMOND BLVD, WINNIPEG, MB, R2J4M4","phone":"(204) 654-6010","latitude":49.876832,"longitude":-97.05718,"timeZone":"","locationType":"Hub Local","district":"PROVINCIAL"},{"locationId":"6183","locationName":"WINNIPEG","abbreviation":"WINN","address":"365 BLACK DIAMOND BLVD, WINNIPEG, MB, R2J4M4","phone":"(204) 654-6010","latitude":49.876832,"longitude":-97.05718,"timeZone":"","locationType":"Hub","district":"PROVINCIAL"},{"locationId":"6187","locationName":"BRANDON","abbreviation":"BRAN","address":"1805 14TH STREET E, BRANDON, MB, R7A7V2","phone":"(204) 725-9799","latitude":49.822505,"longitude":-99.920933,"timeZone":"","locationType":"Station","district":"PROVINCIAL"},{"locationId":"6188","locationName":"DAUPHIN","abbreviation":"DAPH","address":"909 WHITMORE AVE EAST, DAUPHIN, MB, R7N3L9","phone":"(204) 725-9799","latitude":51.139494,"longitude":-100.022843,"timeZone":"","locationType":"NFS","district":"PROVINCIAL"},{"locationId":"6194","locationName":"REGINA","abbreviation":"REGI","address":"2128 EMMET HALL RD, REGINA, SK, S4N3M3","phone":"(306) 352-0663","latitude":50.473437,"longitude":-104.555824,"timeZone":"","locationType":"Station","district":"PROVINCIAL"},{"locationId":"6196","locationName":"PRINCE ALBERT","abbreviation":"PRAL","address":"356 CASAVANT AVE, PRINCE ALBERT, SK, S6V5R3","phone":"(306) 659-1800","latitude":53.17676,"longitude":-105.754395,"timeZone":"","locationType":"NFS","district":"PROVINCIAL"},{"locationId":"6197","locationName":"SASKATOON","abbreviation":"SASK","address":"116 PROSPECT ROAD, CORMAN PARK, SK, S7R0H4","phone":"(306) 659-1800","latitude":52.192909,"longitude":-106.710608,"timeZone":"","locationType":"Station","district":"PROVINCIAL"},{"locationId":"6199","locationName":"SWIFT CURRENT","abbreviation":"SWCR","address":"1 SPRINGS DRIVE, SWIFT CURRENT, SK, S9H3X6","phone":"(306) 352-0663","latitude":50.30684,"longitude":-107.781159,"timeZone":"","locationType":"NFS","district":"PROVINCIAL"},{"locationId":"6200","locationName":"MEDICINE HAT","abbreviation":"MHAT","address":"4400 BOX SPRINGS STREET NW, MEDICINE HAT, AB, T1C0H3","phone":"(403) 528-0366","latitude":50.070329,"longitude":-110.741445,"timeZone":"","locationType":"Station","district":"PROVINCIAL"},{"locationId":"6201","locationName":"LETHBRIDGE","abbreviation":"LTHB","address":"249 28TH STREET NORTH, LETHBRIDGE, AB, T1H6W3","phone":"(403) 388-8215","latitude":49.703106,"longitude":-112.80328,"timeZone":"","locationType":"Station","district":"PROVINCIAL"},{"locationId":"6202","locationName":"CALGARY","abbreviation":"CGYL","address":"46 AERO DRIVE NE, CALGARY, AB, T2E8Z9","phone":"(403) 275-3367","latitude":51.122668,"longitude":-114.037533,"timeZone":"","locationType":"Station","district":"PROVINCIAL"},{"locationId":"6203","locationName":"CRANBROOK","abbreviation":"CRBK","address":"1001 INDUSTRIAL ROAD 2, CRANBROOK, BC, V1C4K7","phone":"(250) 489-0601","latitude":49.52433,"longitude":-115.765363,"timeZone":"","locationType":"Sub Station","district":"PROVINCIAL"},{"locationId":"6204","locationName":"RED DEER","abbreviation":"REDR","address":"94 BURNT PARK DRIVE, RED DEER, AB, T4N4A5","phone":"(403) 343-3609","latitude":52.301729,"longitude":-113.866757,"timeZone":"","locationType":"Station","district":"PROVINCIAL"},{"locationId":"6205","locationName":"LLOYDMINSTER","abbreviation":"LLYD","address":"4401 52 ST, LLOYDMINSTER, SK, S9V2B3","phone":"(306) 825-1014","latitude":53.285033,"longitude":-109.987905,"timeZone":"","locationType":"Station","district":"PROVINCIAL"},{"locationId":"6206","locationName":"EDMONTON LOCAL","abbreviation":"EDMO","address":"6364 50TH STREET NW, EDMONTON, AB, T6B2N7","phone":"(587) 463-1420","latitude":53.50227,"longitude":-113.41831,"timeZone":"","locationType":"Hub Local","district":"PROVINCIAL"},{"locationId":"6207","locationName":"EDSON","abbreviation":"ESON","address":"6539 22 AVE, EDSON, AB, T7E1S5","phone":"(587) 463-1420","latitude":53.599061,"longitude":-116.458342,"timeZone":"","locationType":"NFS","district":"PROVINCIAL"},{"locationId":"6208","locationName":"GRANDE PRAIRIE","abbreviation":"GRAN","address":"6901 98 STREET, CLAIRMONT, AB, T0H0W0","phone":"(780) 539-2378","latitude":55.230442,"longitude":-118.788703,"timeZone":"","locationType":"Station","district":"PROVINCIAL"},{"locationId":"6209","locationName":"FORT MCMURRAY","abbreviation":"FTMM","address":"280 TAIGANOVA CRESCENT, FORT MCMURRAY, AB, T9K0T4","phone":"(780) 792-1140","latitude":56.775754,"longitude":-111.415397,"timeZone":"","locationType":"Station","district":"PROVINCIAL"},{"locationId":"6210","locationName":"NISKU","abbreviation":"NISK","address":"9126 130TH STREET SW, EDMONTON, AB, T6Y0N3","phone":"(780) 979-5731","latitude":53.346474,"longitude":-113.55175,"timeZone":"","locationType":"Station","district":"PROVINCIAL"},{"locationId":"6211","locationName":"MANNING","abbreviation":"MANG","address":"114 3RD AVENUE SW, MANNING, AB, T0H2M0","phone":"(780) 539-2378","latitude":51.19112,"longitude":-114.47014,"timeZone":"","locationType":"NFS","district":"PROVINCIAL"},{"locationId":"6212","locationName":"NORTH CALGARY","abbreviation":"NCGY","address":"566 AERO DRIVE NE, SUITE 165, CALGARY, AB, T2E7Y4","phone":"(825) 222-0160","latitude":51.120454,"longitude":-114.035024,"timeZone":"","locationType":"Hub","district":"PROVINCIAL"},{"locationId":"6213","locationName":"NORTH CALGARY_LOCAL","abbreviation":"NCGL","address":"566 AERO DRIVE NE, SUITE 165, CALGARY, AB, T2E7Y4","phone":"(825) 222-0160","latitude":51.120454,"longitude":-114.035024,"timeZone":"","locationType":"Hub Local","district":"PROVINCIAL"},{"locationId":"6216","locationName":"EDMONTON","abbreviation":"EDMH","address":"6364 50TH STREET NW, EDMONTON, AB, T6B2N7","phone":"(587) 463-1420","latitude":53.50227,"longitude":-113.41831,"timeZone":"","locationType":"Hub","district":"PROVINCIAL"},{"locationId":"6218","locationName":"FORT SAINT JOHN","abbreviation":"FTSJ","address":"6419 B AIRPORT RD, FORT ST. JOHN, BC, V1J6A1","phone":"","latitude":56.24603,"longitude":-120.77085,"timeZone":"","locationType":"NFS","district":"PROVINCIAL"},{"locationId":"6219","locationName":"WILLIAMS LAKE","abbreviation":"WMLK","address":"955 MACKENZIE AVENUE SOUTH, UNIT C, WILLIAMS LAKE, BC, V2G3X9","phone":"(250) 562-4744","latitude":52.124154,"longitude":-122.127146,"timeZone":"","locationType":"NFS","district":"PROVINCIAL"},{"locationId":"6220","locationName":"KAMLOOPS","abbreviation":"KAML","address":"8195 DALLAS DRIVE, KAMLOOPS, BC, V2C6X2","phone":"(250) 573-7612","latitude":50.656267,"longitude":-120.107682,"timeZone":"","locationType":"Station","district":"PROVINCIAL"},{"locationId":"6221","locationName":"PRINCE GEORGE","abbreviation":"PRIN","address":"1024 GREAT STREET, PRINCE GEORGE, BC, V2N2K8","phone":"(250) 562-4744","latitude":53.8814,"longitude":-122.741666,"timeZone":"","locationType":"Station","district":"PROVINCIAL"},{"locationId":"6222","locationName":"KELOWNA","abbreviation":"KLNA","address":"2450 ACLAND ROAD, UNIT #110, KELOWNA, BC, V1X6N6","phone":"(250) 491-2620","latitude":49.921333,"longitude":-119.384564,"timeZone":"","locationType":"Station","district":"PROVINCIAL"},{"locationId":"6223","locationName":"CASTLEGAR","abbreviation":"CAST","address":"189 ORCHARD AVE, CASTLEGAR, BC, V1N4N8","phone":"(250) 304-4751","latitude":49.382446,"longitude":-117.55818,"timeZone":"","locationType":"Station","district":"PROVINCIAL"},{"locationId":"6225","locationName":"SQUAMISH","abbreviation":"SQAM","address":"101-1201 COMMERCIAL WAY, SQUAMISH, BC, V8B0V1","phone":"(604) 567-5002","latitude":49.723863,"longitude":-123.154073,"timeZone":"","locationType":"Station","district":"PROVINCIAL"},{"locationId":"6226","locationName":"VANCOUVER","abbreviation":"VANC","address":"6849 72ND STREET, DELTA, BC, V4G0A2","phone":"(604) 952-7400","latitude":49.128605,"longitude":-123.02741,"timeZone":"","locationType":"Hub","district":"PROVINCIAL"},{"locationId":"6227","locationName":"VANCOUVER_LOCAL","abbreviation":"VANL","address":"6849 72ND STREET, DELTA, BC, V4G0A2","phone":"(604) 952-7400","latitude":49.128605,"longitude":-123.02741,"timeZone":"","locationType":"Hub Local","district":"PROVINCIAL"},{"locationId":"6228","locationName":"VICTORIA","abbreviation":"VICT","address":"6670A BUTLER CRESCENT DRIVE, SAANICHTON, BC, V8M2G8","phone":"(250) 652-0391","latitude":48.563775,"longitude":-123.420152,"timeZone":"","locationType":"Station","district":"PROVINCIAL"},{"locationId":"6229","locationName":"NANAIMO","abbreviation":"NNMO","address":"125 BOWLSBY STREET, UNIT 1, PETROGLYPH INDUSTRIAL PARK, NANAIMO, BC, V9R6Z8","phone":"(250) 716-5760","latitude":49.14176,"longitude":-123.929931,"timeZone":"","locationType":"Station","district":"PROVINCIAL"},{"locationId":"6230","locationName":"COURTENAY","abbreviation":"COUR","address":"1600 KNIGHT ROAD, COMOX, BC, V9M4A1","phone":"(250) 716-5760","latitude":49.702847,"longitude":-124.916615,"timeZone":"","locationType":"NFS","district":"PROVINCIAL"},{"locationId":"6231","locationName":"TERRACE","abbreviation":"TERC","address":"3169 KOFOED DR, THORNHILL, BC, V8G3P8","phone":"(250) 562-4744","latitude":54.516067,"longitude":-128.545682,"timeZone":"","locationType":"NFS","district":"PROVINCIAL"},{"locationId":"6232","locationName":"ABBOTSFORD","abbreviation":"ABFD","address":"26103 30A AVE, ALDERGROVE, BC, V4W2W6","phone":"(604) 952-7400","latitude":49.058497,"longitude":-122.500481,"timeZone":"","locationType":"Station","district":"PROVINCIAL"},{"locationId":"6233","locationName":"LANGFORD","abbreviation":"LGFD","address":"2207 MILLSTREAM RD, VICTORIA, BC, V9B0J7","phone":"","latitude":48.470941,"longitude":-123.50359,"timeZone":"","locationType":"NFS","district":"PROVINCIAL"},{"locationId":"6234","locationName":"SECHELT","abbreviation":"SHLT","address":"5601 WHARF AVENUE, SECHELT, BC, V0N3A0","phone":"(604) 952-7400","latitude":49.475576,"longitude":-123.754976,"timeZone":"","locationType":"NFS","district":"PROVINCIAL"},{"locationId":"253","locationName":"CHARLESTON","abbreviation":"CHWV","address":"7 JW DRIVE, CHARLESTON, WV, 25313","phone":"(304) 776-3940","latitude":38.407515,"longitude":-81.807321,"timeZone":"","locationType":"Station","district":"CENTRAL"},{"locationId":"258","locationName":"BECKLEY","abbreviation":"BECK","address":"134 AMELIA ROAD, BEAVER, WV, 25813","phone":"(304) 253-9480","latitude":37.791894,"longitude":-81.129169,"timeZone":"","locationType":"Station","district":"CENTRAL"},{"locationId":"263","locationName":"CLARKSBURG","abbreviation":"CLBG","address":"59 FRESA PARKWAY, BRIDGEPORT, WV, 26330","phone":"(304) 592-5792","latitude":39.349243,"longitude":-80.30513,"timeZone":"","locationType":"Station","district":"CENTRAL"},{"locationId":"265","locationName":"MORGANTOWN","abbreviation":"MORG","address":"163 PITMAN ROAD, MORGANTOWN, WV, 26501","phone":"(304) 983-7100","latitude":39.625765,"longitude":-80.003223,"timeZone":"","locationType":"Station","district":"CENTRAL"},{"locationId":"411","locationName":"ASHLAND","abbreviation":"ASHL","address":"301 COMMERCE DRIVE, SOUTH POINT, OH, 45680","phone":"(740) 377-3103","latitude":38.429599,"longitude":-82.586905,"timeZone":"","locationType":"Station","district":"CENTRAL"},{"locationId":"428","locationName":"WEST COLUMBUS","abbreviation":"WCOL","address":"8285 INDUSTRIAL PARKWAY, PLAIN CITY, OH, 43064","phone":"(614) 881-6000","latitude":40.130751,"longitude":-83.208518,"timeZone":"","locationType":"Station","district":"CENTRAL"},{"locationId":"429","locationName":"EAST COLUMBUS","abbreviation":"ECOL","address":"4600 POTH ROAD, COLUMBUS, OH, 43213","phone":"(614) 863-8000","latitude":39.983245,"longitude":-82.87857,"timeZone":"","locationType":"Station","district":"CENTRAL"},{"locationId":"430","locationName":"COLUMBUS LOCAL","abbreviation":"COLL","address":"6120 SOUTH MEADOWS DRIVE, GROVE CITY, OH, 43123","phone":"(614) 801-7800","latitude":39.836616,"longitude":-83.084904,"timeZone":"","locationType":"Hub Local","district":"CENTRAL"},{"locationId":"432","locationName":"COLUMBUS","abbreviation":"COLO","address":"6120 SOUTH MEADOWS DRIVE, GROVE CITY, OH, 43123","phone":"(614) 801-7800","latitude":39.836616,"longitude":-83.084904,"timeZone":"","locationType":"Hub","district":"CENTRAL"},{"locationId":"433","locationName":"GROVEPORT","abbreviation":"GPOX","address":"6840 PONTIUS ROAD, GROVEPORT, OH, 43125","phone":"(614) 409-5800","latitude":39.830779,"longitude":-82.894797,"timeZone":"","locationType":"Station","district":"CENTRAL"},{"locationId":"437","locationName":"ZANESVILLE","abbreviation":"ZANE","address":"8705 COMMERCE DRIVE, CAMBRIDGE, OH, 43725","phone":"(740) 435-9390","latitude":39.981616,"longitude":-81.578514,"timeZone":"","locationType":"Station","district":"CENTRAL"},{"locationId":"438","locationName":"ETNA RSF","abbreviation":"ETRS","address":"9677 TOLLGATE ROAD SW, ETNA, OH, 43062","phone":"(740) 963-7141","latitude":39.951893,"longitude":-82.701293,"timeZone":"","locationType":"Station","district":"CENTRAL"},{"locationId":"439","locationName":"ETNA NCPC","abbreviation":"ETNC","address":"9677 TOLLGATE ROAD SW, ETNA, OH, 43062","phone":"(740) 963-7141","latitude":39.951893,"longitude":-82.701293,"timeZone":"","locationType":"Station","district":"CENTRAL"},{"locationId":"440","locationName":"EAST CLEVELAND","abbreviation":"ECLE","address":"2050 E. AURORA ROAD, TWINSBURG, OH, 44087","phone":"(234) 212-3500","latitude":41.308673,"longitude":-81.465848,"timeZone":"","locationType":"Station","district":"CENTRAL"},{"locationId":"441","locationName":"CLEVELAND","abbreviation":"CLEV","address":"3201 COLUMBIA ROAD, RICHFIELD, OH, 44286","phone":"(330) 659-5700","latitude":41.276618,"longitude":-81.615792,"timeZone":"","locationType":"Station","district":"CENTRAL"},{"locationId":"442","locationName":"RICHFIELD","abbreviation":"RIFD","address":"3245 HENRY ROAD, RICHFIELD, OH, 44286","phone":"(330) 659-3501","latitude":41.277083,"longitude":-81.62016,"timeZone":"","locationType":"Sub Station","district":"CENTRAL"},{"locationId":"444","locationName":"ETNA ANNEX","abbreviation":"ETNA","address":"11176 NATIONAL ROAD SW, ETNA, OH, 43062","phone":"(740) 963-7141","latitude":39.957,"longitude":-82.69907,"timeZone":"","locationType":"Annex","district":"CENTRAL"},{"locationId":"445","locationName":"YOUNGSTOWN","abbreviation":"YOUN","address":"12305 BAILEY COURT EAST, NORTH JACKSON, OH, 44451","phone":"(330) 538-2657","latitude":41.109253,"longitude":-80.883406,"timeZone":"","locationType":"Station","district":"CENTRAL"},{"locationId":"447","locationName":"NORTH CANTON","abbreviation":"NCAN","address":"8495 PORT JACKSON AVE. NW, NORTH CANTON, OH, 44720","phone":"(330) 433-1924","latitude":40.904369,"longitude":-81.447481,"timeZone":"","locationType":"Station","district":"CENTRAL"},{"locationId":"449","locationName":"MANSFIELD","abbreviation":"MANS","address":"515 URWIN PARKWAY, MANSFIELD, OH, 44906","phone":"(419) 528-4900","latitude":40.76526,"longitude":-82.613147,"timeZone":"","locationType":"Station","district":"CENTRAL"},{"locationId":"456","locationName":"CHILLICOTHE","abbreviation":"CHIL","address":"1415 INDUSTRIAL DRIVE, CHILLICOTHE, OH, 45601","phone":"(740) 779-6520","latitude":39.363322,"longitude":-83.002778,"timeZone":"","locationType":"Station","district":"CENTRAL"},{"locationId":"3253","locationName":"CHARLESTON - HD","abbreviation":"QCHW","address":"7 JW DRIVE, CHARLESTON, WV, 25313","phone":"(304) 776-3940","latitude":38.407515,"longitude":-81.807321,"timeZone":"","locationType":"Station","district":"CENTRAL"},{"locationId":"3258","locationName":"BECKLEY - HD","abbreviation":"QBEC","address":"134 AMELIA ROAD, BEAVER, WV, 25813","phone":"(304) 253-9480","latitude":37.791894,"longitude":-81.129169,"timeZone":"","locationType":"Station","district":"CENTRAL"},{"locationId":"3263","locationName":"CLARKSBURG - HD","abbreviation":"QCLB","address":"59 FRESA PARKWAY, BRIDGEPORT, WV, 26330","phone":"(304) 592-5792","latitude":39.349243,"longitude":-80.30513,"timeZone":"","locationType":"Station","district":"CENTRAL"},{"locationId":"3265","locationName":"MORGANTOWN - HD","abbreviation":"QMOR","address":"163 PITMAN ROAD, MORGANTOWN, WV, 26501","phone":"(304) 983-7100","latitude":39.625765,"longitude":-80.003223,"timeZone":"","locationType":"Station","district":"CENTRAL"},{"locationId":"3411","locationName":"ASHLAND - HD","abbreviation":"QASH","address":"301 COMMERCE DRIVE, SOUTH POINT, OH, 45680","phone":"(740) 377-3103","latitude":38.429599,"longitude":-82.586905,"timeZone":"","locationType":"Station","district":"CENTRAL"},{"locationId":"3428","locationName":"WEST COLUMBUS - HD","abbreviation":"QWCO","address":"8285 INDUSTRIAL PARKWAY, PLAIN CITY, OH, 43064","phone":"(614) 881-6000","latitude":40.130751,"longitude":-83.208518,"timeZone":"","locationType":"Station","district":"CENTRAL"},{"locationId":"3429","locationName":"EAST COLUMBUS - HD","abbreviation":"QECO","address":"4600 POTH ROAD, COLUMBUS, OH, 43213","phone":"(614) 863-8000","latitude":39.983245,"longitude":-82.87857,"timeZone":"","locationType":"Station","district":"CENTRAL"},{"locationId":"3431","locationName":"COLUMBUS LOCAL - HD","abbreviation":"QCOL","address":"6120 SOUTH MEADOWS DRIVE, GROVE CITY, OH, 43123","phone":"(614) 801-7848","latitude":39.836616,"longitude":-83.084904,"timeZone":"","locationType":"Station","district":"CENTRAL"},{"locationId":"3433","locationName":"GROVEPORT - HD","abbreviation":"QGRP","address":"6840 PONTIUS ROAD, GROVEPORT, OH, 43125","phone":"(614) 409-5800","latitude":39.830779,"longitude":-82.894797,"timeZone":"","locationType":"Station","district":"CENTRAL"},{"locationId":"3437","locationName":"ZANESVILLE - HD","abbreviation":"QZAN","address":"8705 COMMERCE DRIVE, CAMBRIDGE, OH, 43725","phone":"(740) 435-9390","latitude":39.981616,"longitude":-81.578514,"timeZone":"","locationType":"Station","district":"CENTRAL"},{"locationId":"3440","locationName":"EAST CLEVELAND - HD","abbreviation":"QECL","address":"2050 E. AURORA ROAD, TWINSBURG, OH, 44087","phone":"(234) 212-3500","latitude":41.308673,"longitude":-81.465848,"timeZone":"","locationType":"Station","district":"CENTRAL"},{"locationId":"3441","locationName":"CLEVELAND - HD","abbreviation":"QCLE","address":"3201 COLUMBIA ROAD, RICHFIELD, OH, 44286","phone":"(330) 659-5700","latitude":41.276618,"longitude":-81.615792,"timeZone":"","locationType":"Station","district":"CENTRAL"},{"locationId":"3442","locationName":"RICHFIELD- HD","abbreviation":"QRIF","address":"3245 HENRY ROAD, RICHFIELD, OH, 44286","phone":"(330) 659-3501","latitude":41.277083,"longitude":-81.62016,"timeZone":"","locationType":"Sub Station","district":"CENTRAL"},{"locationId":"3444","locationName":"ETNA ANNEX - HD","abbreviation":"QETA","address":"11176 NATIONAL ROAD SW, ETNA, OH, 43062","phone":"(740) 963-7141","latitude":39.957,"longitude":-82.69907,"timeZone":"","locationType":"Annex","district":"CENTRAL"},{"locationId":"3445","locationName":"YOUNGSTOWN - HD","abbreviation":"QYOU","address":"12305 BAILEY COURT EAST, NORTH JACKSON, OH, 44451","phone":"(330) 538-2657","latitude":41.109253,"longitude":-80.883406,"timeZone":"","locationType":"Station","district":"CENTRAL"},{"locationId":"3447","locationName":"NORTH CANTON - HD","abbreviation":"QNCA","address":"8495 PORT JACKSON AVE. NW, CANTON, OH, 44720","phone":"(330) 433-1924","latitude":40.904369,"longitude":-81.447481,"timeZone":"","locationType":"Station","district":"CENTRAL"},{"locationId":"3449","locationName":"MANSFIELD - HD","abbreviation":"QMNS","address":"515 URWIN PARKWAY, MANSFIELD, OH, 44906","phone":"(419) 528-4900","latitude":40.76526,"longitude":-82.613147,"timeZone":"","locationType":"Station","district":"CENTRAL"},{"locationId":"3456","locationName":"CHILLICOTHE - HD","abbreviation":"QCHI","address":"1415 INDUSTRIAL DRIVE, CHILLICOTHE, OH, 45601","phone":"(740) 779-6520","latitude":39.363322,"longitude":-83.002778,"timeZone":"","locationType":"Station","district":"CENTRAL"},{"locationId":"5431","locationName":"GROVE CITY FXSP","abbreviation":"GCOH","address":"2969 LEWIS CENTRE WAY, GROVE CITY, OH, 43123","phone":"(614) 801-2403","latitude":39.903855,"longitude":-83.094725,"timeZone":"","locationType":"Smartpost Hub","district":"CENTRAL"},{"locationId":"478","locationName":"TERRE HAUTE","abbreviation":"TERR","address":"2501 S. SYCAMORE TERRACE ST., TERRE HAUTE, IN, 47803","phone":"(812) 514-7336","latitude":39.436692,"longitude":-87.34368,"timeZone":"","locationType":"Station","district":"GATEWAY"},{"locationId":"479","locationName":"LAFAYETTE","abbreviation":"LAFA","address":"3815 DAVID HOWARTH DRIVE, LAFAYETTE, IN, 47909","phone":"(765) 250-4480","latitude":40.36308,"longitude":-86.83357,"timeZone":"","locationType":"Station","district":"GATEWAY"},{"locationId":"616","locationName":"PEORIA","abbreviation":"PEOR","address":"500 E. HIGHLAND, MORTON, IL, 61550","phone":"(309) 263-4957","latitude":40.632093,"longitude":-89.454246,"timeZone":"","locationType":"Station","district":"GATEWAY"},{"locationId":"617","locationName":"CHAMPAIGN ANNEX","abbreviation":"LCHX","address":"4105 FIELDSTONE ROAD, CHAMPAIGN, IL, 61822","phone":"(217) 560-6350","latitude":40.115133,"longitude":-88.312614,"timeZone":"","locationType":"Annex","district":"GATEWAY"},{"locationId":"618","locationName":"CHAMPAIGN LOCAL","abbreviation":"LCHA","address":"102 MERCURY DRIVE, CHAMPAIGN, IL, 61822","phone":"(217) 363-5130","latitude":40.151234,"longitude":-88.23652,"timeZone":"","locationType":"Hub Local","district":"GATEWAY"},{"locationId":"619","locationName":"CHAMPAIGN","abbreviation":"CHAM","address":"102 MERCURY DRIVE, CHAMPAIGN, IL, 61822","phone":"(217) 363-5100","latitude":40.151234,"longitude":-88.23652,"timeZone":"","locationType":"Hub","district":"GATEWAY"},{"locationId":"623","locationName":"QUINCY","abbreviation":"QUIN","address":"4300 LONE TREE DRIVE, QUINCY, IL, 62305","phone":"(217) 231-4725","latitude":39.94885,"longitude":-91.347561,"timeZone":"","locationType":"Station","district":"GATEWAY"},{"locationId":"624","locationName":"EFFINGHAM","abbreviation":"EFHM","address":"1700 HEARTLAND BOULEVARD, EFFINGHAM, IL, 62401","phone":"(217) 342-6560","latitude":39.106995,"longitude":-88.566282,"timeZone":"","locationType":"Station","district":"GATEWAY"},{"locationId":"626","locationName":"KOKE MILL","abbreviation":"KOKE","address":"3050 S KOKE MILL RD, SPRINGFIELD, IL, 62711","phone":"(217) 993-7173","latitude":39.758488,"longitude":-89.715333,"timeZone":"","locationType":"Sub Station","district":"GATEWAY"},{"locationId":"627","locationName":"SPRINGFIELD","abbreviation":"SPIL","address":"2951 GRANGER DRIVE, SPRINGFIELD, IL, 62707","phone":"(217) 528-1481","latitude":39.842856,"longitude":-89.597727,"timeZone":"","locationType":"Station","district":"GATEWAY"},{"locationId":"629","locationName":"MARION","abbreviation":"MARN","address":"10711 MARK TWAIN ROAD, WEST FRANKFORT, IL, 62896","phone":"(618) 937-1249","latitude":37.903469,"longitude":-88.957191,"timeZone":"","locationType":"Station","district":"GATEWAY"},{"locationId":"630","locationName":"WEST ST. LOUIS","abbreviation":"WSTO","address":"8462 DELPORT DRIVE, SAINT LOUIS, MO, 63114","phone":"(314) 801-5022","latitude":38.694231,"longitude":-90.341779,"timeZone":"","locationType":"Station","district":"GATEWAY"},{"locationId":"631","locationName":"ST. LOUIS","abbreviation":"STLO","address":"1525 WOODSON ROAD, SAINT LOUIS, MO, 63114","phone":"(314) 567-2900","latitude":38.678965,"longitude":-90.361486,"timeZone":"","locationType":"Station","district":"GATEWAY"},{"locationId":"632","locationName":"SOUTH ST. LOUIS","abbreviation":"SSTO","address":"1602 VINCENT DRIVE, SAUGET, IL, 62206","phone":"(618) 332-7600","latitude":38.586687,"longitude":-90.157194,"timeZone":"","locationType":"Station","district":"GATEWAY"},{"locationId":"633","locationName":"NORTH ST.LOUIS","abbreviation":"NSTO","address":"9000 PREMIER PARKWAY SOUTH, SAINT PETERS, MO, 63376","phone":"(636) 685-9500","latitude":38.806956,"longitude":-90.596588,"timeZone":"","locationType":"Station","district":"GATEWAY"},{"locationId":"3478","locationName":"TERRE HAUTE - HD","abbreviation":"QTER","address":"2501 S. SYCAMORE TERRACE ST., TERRE HAUTE, IN, 47803","phone":"(812) 514-7336","latitude":39.436692,"longitude":-87.34368,"timeZone":"","locationType":"Station","district":"GATEWAY"},{"locationId":"3479","locationName":"LAFAYETTE - HD","abbreviation":"QLAF","address":"3815 DAVID HOWARTH DRIVE, LAFAYETTE, IN, 47909","phone":"(765) 250-4480","latitude":40.36308,"longitude":-86.83357,"timeZone":"","locationType":"Station","district":"GATEWAY"},{"locationId":"3616","locationName":"PEORIA - HD","abbreviation":"QPEO","address":"500 E. HIGHLAND, MORTON, IL, 61550","phone":"(309) 263-4957","latitude":40.632093,"longitude":-89.454246,"timeZone":"","locationType":"Station","district":"GATEWAY"},{"locationId":"3617","locationName":"CHAMPAIGN ANNEX - HD","abbreviation":"QLCX","address":"4105 FIELDSTONE ROAD, CHAMPAIGN, IL, 61822","phone":"(217) 560-6350","latitude":40.115133,"longitude":-88.312614,"timeZone":"","locationType":"Annex","district":"GATEWAY"},{"locationId":"3618","locationName":"CHAMPAIGN LOCAL - HD","abbreviation":"QCHM","address":"102 MERCURY DRIVE, CHAMPAIGN, IL, 61822","phone":"(217) 363-5201","latitude":40.151234,"longitude":-88.23652,"timeZone":"","locationType":"Station","district":"GATEWAY"},{"locationId":"3623","locationName":"QUINCY - HD","abbreviation":"QQUI","address":"4300 LONE TREE DRIVE, QUINCY, IL, 62305","phone":"(217) 231-4725","latitude":39.94885,"longitude":-91.347561,"timeZone":"","locationType":"Station","district":"GATEWAY"},{"locationId":"3624","locationName":"EFFINGHAM - HD","abbreviation":"QEFH","address":"1700 HEARTLAND BOULEVARD, EFFINGHAM, IL, 62401","phone":"(217) 342-6560","latitude":39.106995,"longitude":-88.566282,"timeZone":"","locationType":"Station","district":"GATEWAY"},{"locationId":"3626","locationName":"KOKE MILL - HD","abbreviation":"QKOM","address":"3050 S KOKE MILL RD, SPRINGFIELD, IL, 62711","phone":"(217) 993-7173","latitude":39.758488,"longitude":-89.715333,"timeZone":"","locationType":"Sub Station","district":"GATEWAY"},{"locationId":"3627","locationName":"SPRINGFIELD - HD","abbreviation":"QSPI","address":"2951 GRANGER DRIVE, SPRINGFIELD, IL, 62707","phone":"(217) 528-1481","latitude":39.842856,"longitude":-89.597727,"timeZone":"","locationType":"Station","district":"GATEWAY"},{"locationId":"3628","locationName":"MARION - HD","abbreviation":"QMRN","address":"10711 MARK TWAIN ROAD, WEST FRANKFORT, IL, 62896","phone":"(618) 937-2042","latitude":37.903469,"longitude":-88.957191,"timeZone":"","locationType":"Station","district":"GATEWAY"},{"locationId":"3630","locationName":"ST. LOUIS - HD","abbreviation":"QSTL","address":"1525 WOODSON ROAD, SAINT LOUIS, MO, 63114","phone":"(314) 567-2900","latitude":38.678965,"longitude":-90.361486,"timeZone":"","locationType":"Station","district":"GATEWAY"},{"locationId":"3631","locationName":"WEST ST. LOUIS - HD","abbreviation":"QWST","address":"8462 DELPORT DRIVE, SAINT LOUIS, MO, 63114","phone":"(314) 801-5022","latitude":38.694231,"longitude":-90.341779,"timeZone":"","locationType":"Station","district":"GATEWAY"},{"locationId":"3632","locationName":"SOUTH ST. LOUIS - HD","abbreviation":"QSST","address":"1602 VINCENT DRIVE, SAUGET, IL, 62206","phone":"(618) 332-7600","latitude":38.586687,"longitude":-90.157194,"timeZone":"","locationType":"Station","district":"GATEWAY"},{"locationId":"3633","locationName":"NORTH ST LOUIS - HD","abbreviation":"QNST","address":"9000 PREMIER PARKWAY SOUTH, SAINT PETERS, MO, 63376","phone":"(636) 685-9500","latitude":38.806956,"longitude":-90.596588,"timeZone":"","locationType":"Station","district":"GATEWAY"},{"locationId":"5631","locationName":"NORTH ST LOUIS FXSP ANNEX","abbreviation":"NSMO","address":"9000 PREMIER PARKWAY SOUTH, SAINT PETERS, MO, 63376","phone":"(636) 685-9500","latitude":38.806956,"longitude":-90.596588,"timeZone":"","locationType":"Annex","district":"GATEWAY"},{"locationId":"435","locationName":"TOLEDO LOCAL","abbreviation":"TOLL","address":"100 J Street, PERRYSBURG, OH, 43551","phone":"(419) 662-5800","latitude":41.590265,"longitude":-83.551376,"timeZone":"","locationType":"Hub Local","district":"GREAT LAKES"},{"locationId":"436","locationName":"TOLEDO","abbreviation":"TOLE","address":"100 J Street, PERRYSBURG, OH, 43551","phone":"(419) 662-5600","latitude":41.590265,"longitude":-83.551376,"timeZone":"","locationType":"Hub","district":"GREAT LAKES"},{"locationId":"448","locationName":"TOLEDO LOCAL ANNEX","abbreviation":"TOLX","address":"7401 FREMONT PIKE, BUILDING 4 AND 9, PERRYSBURG, OH, 43551","phone":"(419) 367-6534","latitude":41.522215,"longitude":-83.536786,"timeZone":"","locationType":"Annex","district":"GREAT LAKES"},{"locationId":"466","locationName":"SOUTH BEND","abbreviation":"SOBD","address":"5115 DYLAN DRIVE, SOUTH BEND, IN, 46628","phone":"(574) 247-8800","latitude":41.744781,"longitude":-86.333611,"timeZone":"","locationType":"Station","district":"GREAT LAKES"},{"locationId":"468","locationName":"FORT WAYNE","abbreviation":"FTWA","address":"10905 GATEWAY BLVD, NEW HAVEN, IN, 46774","phone":"(260) 749-4305","latitude":41.066418,"longitude":-84.995636,"timeZone":"","locationType":"Station","district":"GREAT LAKES"},{"locationId":"480","locationName":"PONTIAC","abbreviation":"PONT","address":"1601 BROWN ROAD, LAKE ORION, MI, 48359","phone":"(248) 393-7900","latitude":42.709366,"longitude":-83.269256,"timeZone":"","locationType":"Station","district":"GREAT LAKES"},{"locationId":"481","locationName":"ANN ARBOR","abbreviation":"ANAR","address":"6700 SOUTH STATE ROAD, SALINE, MI, 48176","phone":"(734) 429-6170","latitude":42.191197,"longitude":-83.739119,"timeZone":"","locationType":"Station","district":"GREAT LAKES"},{"locationId":"482","locationName":"DETROIT","abbreviation":"DETR","address":"38401 AMRHEIN ROAD, LIVONIA, MI, 48150","phone":"(734) 452-5321","latitude":42.373689,"longitude":-83.42062,"timeZone":"","locationType":"Station","district":"GREAT LAKES"},{"locationId":"483","locationName":"OAK PARK","abbreviation":"OKPA","address":"21200 GREENFIELD ROAD, OAK PARK, MI, 48237","phone":"(248) 905-8720","latitude":42.450087,"longitude":-83.194002,"timeZone":"","locationType":"Station","district":"GREAT LAKES"},{"locationId":"484","locationName":"STERLING HEIGHTS","abbreviation":"STHE","address":"6100 SIMS DRIVE, STERLING HEIGHTS, MI, 48313","phone":"(586) 303-3102","latitude":42.587883,"longitude":-83.048053,"timeZone":"","locationType":"Station","district":"GREAT LAKES"},{"locationId":"486","locationName":"SAGINAW","abbreviation":"SAGI","address":"3887 E WASHINGTON RD, SAGINAW, MI, 48601","phone":"(989) 758-7100","latitude":43.452754,"longitude":-83.877981,"timeZone":"","locationType":"Station","district":"GREAT LAKES"},{"locationId":"487","locationName":"BELLEVILLE","abbreviation":"BELV","address":"41775 ECORSE ROAD, BELLEVILLE, MI, 48111","phone":"(734) 957-1043","latitude":42.240122,"longitude":-83.452019,"timeZone":"","locationType":"Station","district":"GREAT LAKES"},{"locationId":"489","locationName":"LANSING","abbreviation":"LANS","address":"2290 S CANAL ROAD, LANSING, MI, 48917","phone":"(517) 318-8810","latitude":42.709433,"longitude":-84.664697,"timeZone":"","locationType":"Station","district":"GREAT LAKES"},{"locationId":"490","locationName":"KALAMAZOO","abbreviation":"KALA","address":"6701 PORTAGE ROAD, PORTAGE, MI, 49002","phone":"(269) 569-8889","latitude":42.221304,"longitude":-85.557328,"timeZone":"","locationType":"Station","district":"GREAT LAKES"},{"locationId":"493","locationName":"VAN BUREN RSF","abbreviation":"VBRS","address":"42050 ECORSE ROAD, BELLEVILLE, MI, 48111","phone":"(734) 899-2056","latitude":42.252264,"longitude":-83.453469,"timeZone":"","locationType":"Station","district":"GREAT LAKES"},{"locationId":"494","locationName":"VAN BUREN","abbreviation":"VBRN","address":"42050 ECORSE ROAD, BELLEVILLE, MI, 48111","phone":"(734) 899-2078","latitude":42.252264,"longitude":-83.453469,"timeZone":"","locationType":"Station","district":"GREAT LAKES"},{"locationId":"495","locationName":"GRAND RAPIDS","abbreviation":"GRDR","address":"3466 SHIPPERS DRIVE NW, GRAND RAPIDS, MI, 49544","phone":"(616) 647-1900","latitude":43.027684,"longitude":-85.720638,"timeZone":"","locationType":"Station","district":"GREAT LAKES"},{"locationId":"496","locationName":"CADILLAC","abbreviation":"CADC","address":"3699 CARIBOU TRAIL, CADILLAC, MI, 49601","phone":"(231) 253-0010","latitude":44.285564,"longitude":-85.38326,"timeZone":"","locationType":"Station","district":"GREAT LAKES"},{"locationId":"497","locationName":"GAYLORD","abbreviation":"GAYL","address":"1748 WOLVERINE PARKWAY, GAYLORD, MI, 49735","phone":"(989) 732-0519","latitude":45.007371,"longitude":-84.720579,"timeZone":"","locationType":"Station","district":"GREAT LAKES"},{"locationId":"3435","locationName":"TOLEDO LOCAL - HD","abbreviation":"QTOL","address":"100 J STREET, PERRYSBURG, OH, 43551","phone":"(419) 662-5800","latitude":41.590265,"longitude":-83.551376,"timeZone":"","locationType":"Station","district":"GREAT LAKES"},{"locationId":"3448","locationName":"TOLEDO LOCAL ANNEX - HD","abbreviation":"QTOX","address":"7401 FREMONT PIKE, BUILDING 4 AND 9, PERRYSBURG, OH, 43551","phone":"(419) 367-6534","latitude":41.522215,"longitude":-83.536786,"timeZone":"","locationType":"Station","district":"GREAT LAKES"},{"locationId":"3466","locationName":"SOUTH BEND - HD","abbreviation":"QSOB","address":"5115 DYLAN DRIVE, SOUTH BEND, IN, 46628","phone":"(574) 247-8800","latitude":41.744781,"longitude":-86.333611,"timeZone":"","locationType":"Station","district":"GREAT LAKES"},{"locationId":"3468","locationName":"FORT WAYNE - HD","abbreviation":"QFWY","address":"10905 GATEWAY BLVD, NEW HAVEN, IN, 46774","phone":"(260) 749-4305","latitude":41.066418,"longitude":-84.995636,"timeZone":"","locationType":"Station","district":"GREAT LAKES"},{"locationId":"3480","locationName":"STERLING HEIGHTS - HD","abbreviation":"QSTH","address":"6100 SIMS DRIVE, STERLING HEIGHTS, MI, 48313","phone":"(586) 303-3102","latitude":42.587883,"longitude":-83.048053,"timeZone":"","locationType":"Station","district":"GREAT LAKES"},{"locationId":"3481","locationName":"PONTIAC - HD","abbreviation":"QPON","address":"1601 BROWN ROAD, LAKE ORION, MI, 48359","phone":"(248) 393-7900","latitude":42.709366,"longitude":-83.269256,"timeZone":"","locationType":"Station","district":"GREAT LAKES"},{"locationId":"3482","locationName":"DETROIT - HD","abbreviation":"QDET","address":"38401 AMRHEIN ROAD, LIVONIA, MI, 48150","phone":"(734) 452-5321","latitude":42.373689,"longitude":-83.42062,"timeZone":"","locationType":"Station","district":"GREAT LAKES"},{"locationId":"3483","locationName":"OAK PARK - HD","abbreviation":"QOKP","address":"21200 GREENFIELD ROAD, OAK PARK, MI, 48237","phone":"(248) 905-8720","latitude":42.450087,"longitude":-83.194002,"timeZone":"","locationType":"Station","district":"GREAT LAKES"},{"locationId":"3484","locationName":"ANN ARBOR - HD","abbreviation":"QANR","address":"6700 SOUTH STATE ROAD, SALINE, MI, 48176","phone":"(734) 429-6170","latitude":42.191197,"longitude":-83.739119,"timeZone":"","locationType":"Station","district":"GREAT LAKES"},{"locationId":"3485","locationName":"SAGINAW - HD","abbreviation":"QSAG","address":"3887 E WASHINGTON RD, SAGINAW, MI, 48601","phone":"(989) 758-7100","latitude":43.452754,"longitude":-83.877981,"timeZone":"","locationType":"Station","district":"GREAT LAKES"},{"locationId":"3487","locationName":"BELLEVILLE - HD","abbreviation":"QBEL","address":"41775 ECORSE ROAD, BELLEVILLE, MI, 48111","phone":"(734) 957-1043","latitude":42.240122,"longitude":-83.452019,"timeZone":"","locationType":"Station","district":"GREAT LAKES"},{"locationId":"3489","locationName":"LANSING - HD","abbreviation":"QLNS","address":"2290 S CANAL ROAD, LANSING, MI, 48917","phone":"(517) 318-8810","latitude":42.709433,"longitude":-84.664697,"timeZone":"","locationType":"Station","district":"GREAT LAKES"},{"locationId":"3491","locationName":"KALAMAZOO - HD","abbreviation":"QKAL","address":"6701 PORTAGE ROAD, PORTAGE, MI, 49002","phone":"(269) 459-0355","latitude":42.221304,"longitude":-85.557328,"timeZone":"","locationType":"Station","district":"GREAT LAKES"},{"locationId":"3494","locationName":"VAN BUREN - HD","abbreviation":"QVBN","address":"42050 ECORSE ROAD, BELLEVILLE, MI, 48111","phone":"(734) 899-2078","latitude":42.252264,"longitude":-83.453469,"timeZone":"","locationType":"Station","district":"GREAT LAKES"},{"locationId":"3495","locationName":"GRAND RAPIDS - HD","abbreviation":"QGRD","address":"3466 SHIPPERS DRIVE NW, GRAND RAPIDS, MI, 49544","phone":"(616) 647-1900","latitude":43.027684,"longitude":-85.720638,"timeZone":"","locationType":"Station","district":"GREAT LAKES"},{"locationId":"3496","locationName":"CADILLAC - HD","abbreviation":"QCAD","address":"3699 CARIBOU TRAIL, CADILLAC, MI, 49601","phone":"(231) 253-0010","latitude":44.285564,"longitude":-85.38326,"timeZone":"","locationType":"Station","district":"GREAT LAKES"},{"locationId":"3497","locationName":"GAYLORD - HD","abbreviation":"QGLD","address":"1748 WOLVERINE PARKWAY, GAYLORD, MI, 49735","phone":"(989) 732-0519","latitude":45.007371,"longitude":-84.720579,"timeZone":"","locationType":"Station","district":"GREAT LAKES"},{"locationId":"5481","locationName":"BELLEVILLE FXSP","abbreviation":"BLMI","address":"41775 ECORSE RD, SUITE 150, BELLEVILLE, MI, 48111","phone":"(734) 957-1043","latitude":42.240122,"longitude":-83.452019,"timeZone":"","locationType":"Smartpost Hub","district":"GREAT LAKES"},{"locationId":"400","locationName":"EAST LOUISVILLE","abbreviation":"ELOU","address":"12900 PLANTSIDE DR, LOUISVILLE, KY, 40299","phone":"(502) 297-5500","latitude":38.206973,"longitude":-85.519815,"timeZone":"","locationType":"Station","district":"OHIO VALLEY"},{"locationId":"401","locationName":"SHEPHERDSVILLE","abbreviation":"SHPD","address":"270 OMEGA PARKWAY, BUILDING #2, SHEPHERDSVILLE, KY, 40165","phone":"(502) 297-5526","latitude":37.975992,"longitude":-85.681717,"timeZone":"","locationType":"Sub Station","district":"OHIO VALLEY"},{"locationId":"402","locationName":"LOUISVILLE","abbreviation":"LOUI","address":"5153 MARITIME ROAD, JEFFERSONVILLE, IN, 47130","phone":"(812) 218-0781","latitude":38.328546,"longitude":-85.67739,"timeZone":"","locationType":"Station","district":"OHIO VALLEY"},{"locationId":"404","locationName":"LEXINGTON ANNEX","abbreviation":"LEXX","address":"2061 BUCK LANE, LEXINGTON, KY, 40511","phone":"(859) 425-1224","latitude":38.085478,"longitude":-84.538803,"timeZone":"","locationType":"Annex","district":"OHIO VALLEY"},{"locationId":"405","locationName":"LEXINGTON","abbreviation":"LEXN","address":"2024 BUCK LANE, LEXINGTON, KY, 40511","phone":"(859) 425-1224","latitude":38.082761,"longitude":-84.53662,"timeZone":"","locationType":"Station","district":"OHIO VALLEY"},{"locationId":"406","locationName":"NORTHERN KENTUCKY","abbreviation":"NOKY","address":"11000 TOEBBEN DRIVE, INDEPENDENCE, KY, 41051","phone":"(859) 384-5700","latitude":38.942066,"longitude":-84.616166,"timeZone":"","locationType":"Hub","district":"OHIO VALLEY"},{"locationId":"407","locationName":"LONDON","abbreviation":"LOND","address":"600 INDUSTRIAL BLVD, LONDON, KY, 40741","phone":"(606) 862-5540","latitude":37.142502,"longitude":-84.185461,"timeZone":"","locationType":"Station","district":"OHIO VALLEY"},{"locationId":"408","locationName":"LONDON ANNEX","abbreviation":"LONX","address":"60 SPRINGLAKE BLVD, LONDON, KY, 40744","phone":"(606) 389-4073","latitude":37.08218,"longitude":-84.06562,"timeZone":"","locationType":"Annex","district":"OHIO VALLEY"},{"locationId":"410","locationName":"N. KENTUCKY LOCAL","abbreviation":"NOKL","address":"11000 TOEBBEN DRIVE, INDEPENDENCE, KY, 41051","phone":"(859) 384-5762","latitude":38.942066,"longitude":-84.616166,"timeZone":"","locationType":"Hub Local","district":"OHIO VALLEY"},{"locationId":"417","locationName":"CHAVIES","abbreviation":"CHAV","address":"918 COAL FIELDS INDSTRL DR, CHAVIES, KY, 41727","phone":"(606) 487-3900","latitude":37.346594,"longitude":-83.354347,"timeZone":"","locationType":"Station","district":"OHIO VALLEY"},{"locationId":"450","locationName":"NORTH CINCINNATI","abbreviation":"NCIN","address":"325 HOMAN ROAD, LEBANON, OH, 45036","phone":"(513) 228-5600","latitude":39.401507,"longitude":-84.217305,"timeZone":"","locationType":"Station","district":"OHIO VALLEY"},{"locationId":"452","locationName":"CINCINNATI","abbreviation":"CINC","address":"9667 INTER-OCEAN DRIVE, CINCINNATI, OH, 45246","phone":"(513) 682-7740","latitude":39.313524,"longitude":-84.477056,"timeZone":"","locationType":"Station","district":"OHIO VALLEY"},{"locationId":"453","locationName":"SOUTH DAYTON","abbreviation":"SDAY","address":"8650 BYERS ROAD, MIAMISBURG, OH, 45342","phone":"(937) 847-4701","latitude":39.622273,"longitude":-84.234612,"timeZone":"","locationType":"Station","district":"OHIO VALLEY"},{"locationId":"454","locationName":"DAYTON","abbreviation":"DAYT","address":"795 DEER RUN ROAD, VANDALIA, OH, 45377","phone":"(937) 890-0340","latitude":39.909641,"longitude":-84.180281,"timeZone":"","locationType":"Station","district":"OHIO VALLEY"},{"locationId":"461","locationName":"NORTH INDIANAPOLIS","abbreviation":"NIND","address":"10301 BENNETT PARKWAY, ZIONSVILLE, IN, 46077","phone":"(317) 873-7600","latitude":39.9361,"longitude":-86.247454,"timeZone":"","locationType":"Station","district":"OHIO VALLEY"},{"locationId":"462","locationName":"INDIANAPOLIS","abbreviation":"INDI","address":"4111 PRODUCERS DRIVE, INDIANAPOLIS, IN, 46218","phone":"(317) 544-4400","latitude":39.800353,"longitude":-86.099056,"timeZone":"","locationType":"Station","district":"OHIO VALLEY"},{"locationId":"465","locationName":"PLAINFIELD","abbreviation":"INDX","address":"8951 MIRABEL ROAD, INDIANAPOLIS, IN, 46241","phone":"(317) 821-5000","latitude":39.68124,"longitude":-86.32235,"timeZone":"","locationType":"Station","district":"OHIO VALLEY"},{"locationId":"469","locationName":"KOKOMO","abbreviation":"KOKO","address":"2360 E NORTH STREET, KOKOMO, IN, 46901","phone":"(765) 252-2392","latitude":40.499308,"longitude":-86.096655,"timeZone":"","locationType":"Station","district":"OHIO VALLEY"},{"locationId":"472","locationName":"GREENWOOD LOCAL","abbreviation":"GRNW","address":"2157 STACIES WAY, GREENWOOD, IN, 46143","phone":"(463) 204-6213","latitude":39.596336,"longitude":-86.057495,"timeZone":"","locationType":"Hub Local","district":"OHIO VALLEY"},{"locationId":"474","locationName":"GREENWOOD","abbreviation":"GRWD","address":"2157 STACIES WAY, GREENWOOD, IN, 46143","phone":"(463) 204-6200","latitude":39.596336,"longitude":-86.057495,"timeZone":"","locationType":"Hub","district":"OHIO VALLEY"},{"locationId":"3400","locationName":"EAST LOUISVILLE - HD","abbreviation":"QELO","address":"12900 PLANTSIDE DR, LOUISVILLE, KY, 40299","phone":"(502) 297-5500","latitude":38.206973,"longitude":-85.519815,"timeZone":"","locationType":"Station","district":"OHIO VALLEY"},{"locationId":"3401","locationName":"SHEPHERDSVILLE - HD","abbreviation":"QSHD","address":"270 OMEGA PARKWAY, BUILDING #2, SHEPHERDSVILLE, KY, 40165","phone":"(502) 297-5526","latitude":37.975992,"longitude":-85.681717,"timeZone":"","locationType":"Sub Station","district":"OHIO VALLEY"},{"locationId":"3404","locationName":"LEXINGTON ANNEX - HD","abbreviation":"QLXX","address":"2061 BUCK LANE, LEXINGTON, KY, 40511","phone":"(859) 425-1224","latitude":38.085478,"longitude":-84.538803,"timeZone":"","locationType":"Annex","district":"OHIO VALLEY"},{"locationId":"3405","locationName":"LEXINGTON - HD","abbreviation":"QLEX","address":"2024 BUCK LANE, LEXINGTON, KY, 40511","phone":"(859) 425-1224","latitude":38.082761,"longitude":-84.53662,"timeZone":"","locationType":"Station","district":"OHIO VALLEY"},{"locationId":"3406","locationName":"N. KENTUCKY LOCAL- HD","abbreviation":"QNKL","address":"11000 TOEBBEN DRIVE, INDEPENDENCE, KY, 41051","phone":"(859) 384-5762","latitude":38.942066,"longitude":-84.616166,"timeZone":"","locationType":"Station","district":"OHIO VALLEY"},{"locationId":"3407","locationName":"LONDON - HD","abbreviation":"QLON","address":"600 INDUSTRIAL BLVD, LONDON, KY, 40741","phone":"(606) 862-5540","latitude":37.142502,"longitude":-84.185461,"timeZone":"","locationType":"Station","district":"OHIO VALLEY"},{"locationId":"3408","locationName":"LONDON ANNEX - HD","abbreviation":"QLOX","address":"60 SPRINGLAKE BLVD, LONDON, KY, 40744","phone":"(606) 389-4073","latitude":37.08218,"longitude":-84.06562,"timeZone":"","locationType":"Annex","district":"OHIO VALLEY"},{"locationId":"3417","locationName":"CHAVIES - HD","abbreviation":"QCHV","address":"918 COAL FIELDS INDSTRL DR, CHAVIES, KY, 41727","phone":"(606) 487-3900","latitude":37.346594,"longitude":-83.354347,"timeZone":"","locationType":"Station","district":"OHIO VALLEY"},{"locationId":"3450","locationName":"NORTH CINCINNATI - HD","abbreviation":"QNCI","address":"325 HOMAN ROAD, LEBANON, OH, 45036","phone":"(513) 228-5600","latitude":39.401507,"longitude":-84.217305,"timeZone":"","locationType":"Station","district":"OHIO VALLEY"},{"locationId":"3452","locationName":"CINCINNATI - HD","abbreviation":"QCIN","address":"9667 INTER-OCEAN DRIVE, CINCINNATI, OH, 45246","phone":"(513) 682-7740","latitude":39.313524,"longitude":-84.477056,"timeZone":"","locationType":"Station","district":"OHIO VALLEY"},{"locationId":"3453","locationName":"SOUTH DAYTON - HD","abbreviation":"QSDA","address":"8650 BYERS ROAD, MIAMISBURG, OH, 45342","phone":"(937) 847-4701","latitude":39.622273,"longitude":-84.234612,"timeZone":"","locationType":"Station","district":"OHIO VALLEY"},{"locationId":"3454","locationName":"DAYTON - HD","abbreviation":"QDAY","address":"795 DEER RUN ROAD, EXECUTIVE BUS. PARK, VANDALIA, OH, 45377","phone":"(937) 890-0340","latitude":39.909641,"longitude":-84.180281,"timeZone":"","locationType":"Station","district":"OHIO VALLEY"},{"locationId":"3461","locationName":"NORTH INDIANAPOLIS - HD","abbreviation":"QNIN","address":"10301 BENNETT PARKWAY, ZIONSVILLE, IN, 46077","phone":"(317) 873-7600","latitude":39.9361,"longitude":-86.247454,"timeZone":"","locationType":"Station","district":"OHIO VALLEY"},{"locationId":"3462","locationName":"INDIANAPOLIS - HD","abbreviation":"QIND","address":"4111 PRODUCERS DRIVE, INDIANAPOLIS, IN, 46218","phone":"(317) 544-4400","latitude":39.800353,"longitude":-86.099056,"timeZone":"","locationType":"Station","district":"OHIO VALLEY"},{"locationId":"3465","locationName":"PLAINFIELD - HD","abbreviation":"QPLF","address":"8951 MIRABEL ROAD, INDIANAPOLIS, IN, 46241","phone":"(317) 821-5000","latitude":39.68124,"longitude":-86.32235,"timeZone":"","locationType":"Station","district":"OHIO VALLEY"},{"locationId":"3469","locationName":"KOKOMO - HD","abbreviation":"QKOK","address":"2360 E NORTH STREET, KOKOMO, IN, 46901","phone":"(765) 252-2392","latitude":40.499308,"longitude":-86.096655,"timeZone":"","locationType":"Station","district":"OHIO VALLEY"},{"locationId":"3471","locationName":"LOUISVILLE - HD","abbreviation":"QLOU","address":"5153 MARITIME ROAD, JEFFERSONVILLE, IN, 47130","phone":"(812) 218-0781","latitude":38.328546,"longitude":-85.67739,"timeZone":"","locationType":"Station","district":"OHIO VALLEY"},{"locationId":"3472","locationName":"GREENWOOD LOCAL - HD","abbreviation":"QGRW","address":"2157 STACIES WAY, GREENWOOD, IN, 46143","phone":"(463) 204-6213","latitude":39.596336,"longitude":-86.057495,"timeZone":"","locationType":"Station","district":"OHIO VALLEY"},{"locationId":"5465","locationName":"PLAINFIELD FXSP ANNEX","abbreviation":"ININ","address":"8951 MIRABEL ROAD, INDIANAPOLIS, IN, 46241","phone":"(317) 821-5000","latitude":39.68124,"longitude":-86.32235,"timeZone":"","locationType":"Annex","district":"OHIO VALLEY"},{"locationId":"150","locationName":"NORTH PITTSBURGH","abbreviation":"NPIT","address":"300 TOMLINSON ROAD, ZELIENOPLE, PA, 16063","phone":"(724) 538-1122","latitude":40.758504,"longitude":-80.105326,"timeZone":"","locationType":"Station","district":"ATLANTIC"},{"locationId":"152","locationName":"PITTSBURGH","abbreviation":"PITT","address":"2702 NEVILLE ROAD, PITTSBURGH, PA, 15225","phone":"(412) 778-6000","latitude":40.500751,"longitude":-80.092155,"timeZone":"","locationType":"Station","district":"ATLANTIC"},{"locationId":"153","locationName":"CLINTON","abbreviation":"CLTN","address":"2291 SWEENEY DRIVE, CLINTON, PA, 15026","phone":"(724) 899-4500","latitude":40.49769,"longitude":-80.293516,"timeZone":"","locationType":"Station","district":"ATLANTIC"},{"locationId":"156","locationName":"GREENSBURG","abbreviation":"GRBG","address":"2000 LABONTE DRIVE, HUNKER, PA, 15639","phone":"(724) 696-2900","latitude":40.213989,"longitude":-79.618991,"timeZone":"","locationType":"Station","district":"ATLANTIC"},{"locationId":"158","locationName":"DU BOIS","abbreviation":"DUBO","address":"6 INDUSTRIAL DRIVE, DU BOIS, PA, 15801","phone":"(814) 372-7090","latitude":41.132885,"longitude":-78.73264,"timeZone":"","locationType":"Station","district":"ATLANTIC"},{"locationId":"163","locationName":"OIL CITY","abbreviation":"OILC","address":"1715 DEBENCE DRIVE, FRANKLIN, PA, 16323","phone":"(814) 437-9680","latitude":41.353591,"longitude":-79.867268,"timeZone":"","locationType":"Station","district":"ATLANTIC"},{"locationId":"166","locationName":"ALTOONA","abbreviation":"ALTO","address":"231 THEATER DRIVE, DUNCANSVILLE, PA, 16635","phone":"(814) 693-3530","latitude":40.440404,"longitude":-78.441104,"timeZone":"","locationType":"Station","district":"ATLANTIC"},{"locationId":"170","locationName":"HARRISBURG","abbreviation":"HRBG","address":"510 INDUSTRIAL DRIVE, LEWISBERRY, PA, 17339","phone":"(717) 932-8234","latitude":40.164848,"longitude":-76.83997,"timeZone":"","locationType":"Hub","district":"ATLANTIC"},{"locationId":"171","locationName":"HARRISBURG LOCAL","abbreviation":"HRBL","address":"510 INDUSTRIAL DRIVE, LEWISBERRY, PA, 17339","phone":"(717) 932-8224","latitude":40.164848,"longitude":-76.83997,"timeZone":"","locationType":"Hub Local","district":"ATLANTIC"},{"locationId":"172","locationName":"CARLISLE","abbreviation":"CARL","address":"951 CENTERVILLE ROAD, NEWVILLE, PA, 17241","phone":"(223) 842-6001","latitude":40.120385,"longitude":-77.337037,"timeZone":"","locationType":"Station","district":"ATLANTIC"},{"locationId":"176","locationName":"EAST HARRISBURG","abbreviation":"EHRB","address":"111 FULLING MILL ROAD, MIDDLETOWN, PA, 17057","phone":"(717) 583-1499","latitude":40.232559,"longitude":-76.730677,"timeZone":"","locationType":"Station","district":"ATLANTIC"},{"locationId":"177","locationName":"WILLIAMSPORT","abbreviation":"WMPT","address":"600 ALEXANDER DRIVE, MUNCY, PA, 17756","phone":"(570) 940-1700","latitude":41.251177,"longitude":-76.844655,"timeZone":"","locationType":"Station","district":"ATLANTIC"},{"locationId":"178","locationName":"READING","abbreviation":"READ","address":"2525 NORTH 12TH STREET, READING, PA, 19605","phone":"(484) 878-6227","latitude":40.374143,"longitude":-75.912456,"timeZone":"","locationType":"Sub Station","district":"ATLANTIC"},{"locationId":"179","locationName":"POTTSVILLE","abbreviation":"PTSV","address":"52 HICKORY DRIVE, AUBURN, PA, 17922","phone":"(570) 366-9520","latitude":40.607437,"longitude":-76.089602,"timeZone":"","locationType":"Station","district":"ATLANTIC"},{"locationId":"190","locationName":"SOUTH PHILADELPHIA","abbreviation":"SPHI","address":"1 TINICUM ISLAND ROAD, PHILADELPHIA, PA, 19113","phone":"(610) 362-4700","latitude":39.865071,"longitude":-75.272456,"timeZone":"","locationType":"Station","district":"ATLANTIC"},{"locationId":"191","locationName":"PHILADELPHIA","abbreviation":"PHIL","address":"14300 TOWNSEND ROAD, PHILADELPHIA, PA, 19154","phone":"(215) 856-9160","latitude":40.112172,"longitude":-74.97322,"timeZone":"","locationType":"Station","district":"ATLANTIC"},{"locationId":"192","locationName":"NORTH WALES","abbreviation":"NWAL","address":"1360 WELSH ROAD, NORTH WALES, PA, 19454","phone":"(215) 654-5081","latitude":40.215381,"longitude":-75.232602,"timeZone":"","locationType":"Station","district":"ATLANTIC"},{"locationId":"193","locationName":"WEST CHESTER","abbreviation":"WSCH","address":"442 CREAMERY WAY, SUITE D, EXTON, PA, 19341","phone":"(610) 594-0322","latitude":40.016257,"longitude":-75.655138,"timeZone":"","locationType":"Station","district":"ATLANTIC"},{"locationId":"194","locationName":"KING OF PRUSSIA","abbreviation":"KOPR","address":"601 RIVER ROAD, BRIDGEPORT, PA, 19405","phone":"(610) 239-3000","latitude":40.090674,"longitude":-75.32973,"timeZone":"","locationType":"Station","district":"ATLANTIC"},{"locationId":"195","locationName":"OAKS","abbreviation":"OKSS","address":"122 MILL ROAD, UNIT R-1800, PHOENIXVILLE, PA, 19460","phone":"(610) 728-5970","latitude":40.12405,"longitude":-75.454434,"timeZone":"","locationType":"Sub Station","district":"ATLANTIC"},{"locationId":"3150","locationName":"NORTH PITTSBURGH - HD","abbreviation":"QNPI","address":"300 TOMLINSON ROAD, ZELIENOPLE, PA, 16063","phone":"(724) 538-1122","latitude":40.758504,"longitude":-80.105326,"timeZone":"","locationType":"Station","district":"ATLANTIC"},{"locationId":"3152","locationName":"PITTSBURGH - HD","abbreviation":"QPIT","address":"2702 NEVILLE ROAD, PITTSBURGH, PA, 15225","phone":"(412) 778-6000","latitude":40.500751,"longitude":-80.092155,"timeZone":"","locationType":"Station","district":"ATLANTIC"},{"locationId":"3153","locationName":"CLINTON - HD","abbreviation":"QCLN","address":"2291 SWEENEY DRIVE, CLINTON, PA, 15026","phone":"(724) 899-4500","latitude":40.49769,"longitude":-80.293516,"timeZone":"","locationType":"Station","district":"ATLANTIC"},{"locationId":"3156","locationName":"GREENSBURG - HD","abbreviation":"QGBG","address":"2000 LABONTE DRIVE, HUNKER, PA, 15639","phone":"(724) 696-2900","latitude":40.213989,"longitude":-79.618991,"timeZone":"","locationType":"Station","district":"ATLANTIC"},{"locationId":"3158","locationName":"DU BOIS - HD","abbreviation":"QDUB","address":"6 INDUSTRIAL DRIVE, DU BOIS, PA, 15801","phone":"(814) 372-7090","latitude":41.132885,"longitude":-78.73264,"timeZone":"","locationType":"Station","district":"ATLANTIC"},{"locationId":"3163","locationName":"OIL CITY - HD","abbreviation":"QOIL","address":"1715 DEBENCE DRIVE, FRANKLIN, PA, 16323","phone":"(814) 437-9680","latitude":41.353591,"longitude":-79.867268,"timeZone":"","locationType":"Station","district":"ATLANTIC"},{"locationId":"3166","locationName":"ALTOONA - HD","abbreviation":"QALT","address":"231 THEATER DRIVE, DUNCANSVILLE, PA, 16635","phone":"(814) 693-3530","latitude":40.440404,"longitude":-78.441104,"timeZone":"","locationType":"Station","district":"ATLANTIC"},{"locationId":"3171","locationName":"HARRISBURG LOCAL - HD","abbreviation":"QHRL","address":"510 INDUSTRIAL DRIVE, LEWISBERRY, PA, 17339","phone":"(717) 932-8224","latitude":40.164848,"longitude":-76.83997,"timeZone":"","locationType":"Station","district":"ATLANTIC"},{"locationId":"3172","locationName":"CARLISLE - HD","abbreviation":"QCAR","address":"951 CENTERVILLE ROAD, NEWVILLE, PA, 17241","phone":"(223) 842-6001","latitude":40.120385,"longitude":-77.337037,"timeZone":"","locationType":"Station","district":"ATLANTIC"},{"locationId":"3176","locationName":"EAST HARRISBURG - HD","abbreviation":"QEHR","address":"111 FULLING MILL ROAD, MIDDLETOWN, PA, 17057","phone":"(717) 583-1499","latitude":40.232559,"longitude":-76.730677,"timeZone":"","locationType":"Station","district":"ATLANTIC"},{"locationId":"3177","locationName":"WILLIAMSPORT - HD","abbreviation":"QWMP","address":"600 ALEXANDER DRIVE, MUNCY, PA, 17756","phone":"(570) 940-1700","latitude":41.251177,"longitude":-76.844655,"timeZone":"","locationType":"Station","district":"ATLANTIC"},{"locationId":"3178","locationName":"READING - HD","abbreviation":"QRDG","address":"2525 NORTH 12TH STREET, READING, PA, 19605","phone":"(484) 878-6227","latitude":40.374143,"longitude":-75.912456,"timeZone":"","locationType":"Sub Station","district":"ATLANTIC"},{"locationId":"3179","locationName":"POTTSVILLE - HD","abbreviation":"QPTS","address":"52 HICKORY DRIVE, AUBURN, PA, 17922","phone":"(570) 366-9520","latitude":40.607437,"longitude":-76.089602,"timeZone":"","locationType":"Station","district":"ATLANTIC"},{"locationId":"3190","locationName":"PHILADELPHIA - HD","abbreviation":"QPHI","address":"14300 TOWNSEND ROAD, PHILADELPHIA, PA, 19154","phone":"(215) 856-9160","latitude":40.112172,"longitude":-74.97322,"timeZone":"","locationType":"Station","district":"ATLANTIC"},{"locationId":"3191","locationName":"SOUTH PHILADELPHIA - HD","abbreviation":"QSPH","address":"1 TINICUM ISLAND ROAD, PHILADELPHIA, PA, 19113","phone":"(610) 362-4700","latitude":39.865071,"longitude":-75.272456,"timeZone":"","locationType":"Station","district":"ATLANTIC"},{"locationId":"3192","locationName":"WEST CHESTER - HD","abbreviation":"QWSC","address":"442 CREAMERY WAY, EXTON, PA, 19341","phone":"(610) 594-0322","latitude":40.016257,"longitude":-75.655138,"timeZone":"","locationType":"Station","district":"ATLANTIC"},{"locationId":"3193","locationName":"NORTH WALES - HD","abbreviation":"QNWL","address":"1360 WELSH ROAD, NORTH WALES, PA, 19454","phone":"(215) 654-5081","latitude":40.215381,"longitude":-75.232602,"timeZone":"","locationType":"Station","district":"ATLANTIC"},{"locationId":"3194","locationName":"KING OF PRUSSIA - HD","abbreviation":"QKOP","address":"601 RIVER ROAD, BRIDGEPORT, PA, 19405","phone":"(610) 239-3000","latitude":40.090674,"longitude":-75.32973,"timeZone":"","locationType":"Station","district":"ATLANTIC"},{"locationId":"3195","locationName":"OAKS - HD","abbreviation":"QOKS","address":"122 MILL ROAD, UNIT R-1800, PHOENIXVILLE, PA, 19460","phone":"(610) 728-5970","latitude":40.12405,"longitude":-75.454434,"timeZone":"","locationType":"Sub Station","district":"ATLANTIC"},{"locationId":"5150","locationName":"CLINTON FXSP","abbreviation":"CLPA","address":"2291 SWEENEY DRIVE, BUILDING 2, CLINTON, PA, 15026","phone":"(724) 899-4500","latitude":40.49769,"longitude":-80.293516,"timeZone":"","locationType":"Smartpost Hub","district":"ATLANTIC"},{"locationId":"70","locationName":"SECAUCUS","abbreviation":"SECA","address":"1049 SECAUCUS ROAD, JERSEY CITY, NJ, 7307","phone":"(201) 222-2300","latitude":40.761942,"longitude":-74.057782,"timeZone":"","locationType":"Station","district":"DELAWARE VALLEY"},{"locationId":"74","locationName":"WAYNE","abbreviation":"WAYN","address":"95 DEMAREST DRIVE, WAYNE, NJ, 7470","phone":"(973) 305-3420","latitude":40.902884,"longitude":-74.261167,"timeZone":"","locationType":"Station","district":"DELAWARE VALLEY"},{"locationId":"75","locationName":"DOVER","abbreviation":"DOVR","address":"1 COMMERCE CENTER DRIVE, DOVER, NJ, 7801","phone":"(973) 537-3400","latitude":40.897902,"longitude":-74.555414,"timeZone":"","locationType":"Station","district":"DELAWARE VALLEY"},{"locationId":"76","locationName":"MOONACHIE","abbreviation":"MOON","address":"1 CHIPPEWA STREET, SOUTH HACKENSACK, NJ, 7606","phone":"(201) 288-5886","latitude":40.862826,"longitude":-74.045783,"timeZone":"","locationType":"Station","district":"DELAWARE VALLEY"},{"locationId":"80","locationName":"EAST BRUNSWICK","abbreviation":"EBRN","address":"39 EDGEBORO ROAD, EAST BRUNSWICK, NJ, 8816","phone":"(732) 509-4200","latitude":40.46857,"longitude":-74.394609,"timeZone":"","locationType":"Station","district":"DELAWARE VALLEY"},{"locationId":"81","locationName":"CAMDEN","abbreviation":"CAMD","address":"5 COMMERCE DRIVE, BARRINGTON, NJ, 8007","phone":"(856) 546-2200","latitude":39.862902,"longitude":-75.041857,"timeZone":"","locationType":"Station","district":"DELAWARE VALLEY"},{"locationId":"85","locationName":"PRINCETON","abbreviation":"PRNC","address":"63 STULTS ROAD, DAYTON, NJ, 8810","phone":"(609) 860-6800","latitude":40.35787,"longitude":-74.482682,"timeZone":"","locationType":"Station","district":"DELAWARE VALLEY"},{"locationId":"86","locationName":"ROBBINSVILLE","abbreviation":"ROBB","address":"584 US ROUTE 130, TRENTON, NJ, 8691","phone":"(609) 581-2696","latitude":40.188698,"longitude":-74.655799,"timeZone":"","locationType":"Station","district":"DELAWARE VALLEY"},{"locationId":"180","locationName":"BREINIGSVILLE","abbreviation":"BREI","address":"8451 WILLARD DRIVE, BREINIGSVILLE, PA, 18031","phone":"(610) 973-5258","latitude":40.554672,"longitude":-75.628465,"timeZone":"","locationType":"Station","district":"DELAWARE VALLEY"},{"locationId":"181","locationName":"LEHIGH VALLEY LOCAL","abbreviation":"LEHL","address":"1000 WILLOWBROOK ROAD, NORTHAMPTON, PA, 18067","phone":"(484) 271-7288","latitude":40.671106,"longitude":-75.450963,"timeZone":"","locationType":"Hub Local","district":"DELAWARE VALLEY"},{"locationId":"182","locationName":"LEHIGH VALLEY","abbreviation":"LEHI","address":"1000 WILLOWBROOK ROAD, NORTHAMPTON, PA, 18067","phone":"(484) 271-7051","latitude":40.671106,"longitude":-75.450963,"timeZone":"","locationType":"Hub","district":"DELAWARE VALLEY"},{"locationId":"183","locationName":"BREINIGSVILLE RSF","abbreviation":"BRRS","address":"8451 WILLARD DRIVE, BREINIGSVILLE, PA, 18031","phone":"(610) 973-5258","latitude":40.554672,"longitude":-75.628465,"timeZone":"","locationType":"Station","district":"DELAWARE VALLEY"},{"locationId":"3070","locationName":"SECAUCUS - HD","abbreviation":"QSEC","address":"1049 SECAUCUS ROAD, JERSEY CITY, NJ, 7307","phone":"(201) 222-2300","latitude":40.761942,"longitude":-74.057782,"timeZone":"","locationType":"Station","district":"DELAWARE VALLEY"},{"locationId":"3071","locationName":"CARTERET - HD","abbreviation":"QCRT","address":"200 MILIK STREET, CARTERET, NJ, 7008","phone":"(732) 669-4020","latitude":40.589223,"longitude":-74.251313,"timeZone":"","locationType":"Station","district":"DELAWARE VALLEY"},{"locationId":"3072","locationName":"CARTERET ANNEX - HD","abbreviation":"QCTX","address":"80 ESSEX AVENUE, AVENEL, NJ, 7001","phone":"(732) 621-2070","latitude":40.57821,"longitude":-74.260431,"timeZone":"","locationType":"Annex","district":"DELAWARE VALLEY"},{"locationId":"3074","locationName":"WAYNE - HD","abbreviation":"QWAN","address":"95 DEMAREST DRIVE, WAYNE, NJ, 7470","phone":"(973) 305-3420","latitude":40.902884,"longitude":-74.261167,"timeZone":"","locationType":"Station","district":"DELAWARE VALLEY"},{"locationId":"3075","locationName":"DOVER - HD","abbreviation":"QDOV","address":"1 COMMERCE CENTER DRIVE, DOVER, NJ, 7801","phone":"(973) 537-3400","latitude":40.897902,"longitude":-74.555414,"timeZone":"","locationType":"Station","district":"DELAWARE VALLEY"},{"locationId":"3076","locationName":"MOONACHIE - HD","abbreviation":"QMOO","address":"1 CHIPPEWA STREET, SOUTH HACKENSACK, NJ, 7606","phone":"(201) 288-5886","latitude":40.862826,"longitude":-74.045783,"timeZone":"","locationType":"Station","district":"DELAWARE VALLEY"},{"locationId":"3079","locationName":"AVENEL - HD","abbreviation":"QAVE","address":"135 ESSEX AVE, AVENEL, NJ, 7001","phone":"(732) 621-5001","latitude":40.575266,"longitude":-74.263452,"timeZone":"","locationType":"Station","district":"DELAWARE VALLEY"},{"locationId":"3080","locationName":"EAST BRUNSWICK - HD","abbreviation":"QEBR","address":"39 EDGEBORO ROAD, EAST BRUNSWICK, NJ, 8816","phone":"(732) 509-4200","latitude":40.46857,"longitude":-74.394609,"timeZone":"","locationType":"Station","district":"DELAWARE VALLEY"},{"locationId":"3081","locationName":"BARRINGTON - HD","abbreviation":"QBAR","address":"ONE COMMERCE DRIVE, BARRINGTON BUSINESS CENTER, BARRINGTON, NJ, 8007","phone":"(856) 546-9190","latitude":39.862902,"longitude":-75.041857,"timeZone":"","locationType":"Station","district":"DELAWARE VALLEY"},{"locationId":"3082","locationName":"CAMDEN - HD","abbreviation":"QCAM","address":"5 COMMERCE DRIVE, BARRINGTON, NJ, 8007","phone":"(856) 546-2200","latitude":39.862902,"longitude":-75.041857,"timeZone":"","locationType":"Station","district":"DELAWARE VALLEY"},{"locationId":"3085","locationName":"ROBBINSVILLE - HD","abbreviation":"QROB","address":"584 US ROUTE 130, TRENTON, NJ, 8691","phone":"(609) 581-2696","latitude":40.188698,"longitude":-74.655799,"timeZone":"","locationType":"Station","district":"DELAWARE VALLEY"},{"locationId":"3086","locationName":"PRINCETON - HD","abbreviation":"QPRN","address":"63 STULTS ROAD, DAYTON, NJ, 8810","phone":"(609) 860-6800","latitude":40.35787,"longitude":-74.482682,"timeZone":"","locationType":"Station","district":"DELAWARE VALLEY"},{"locationId":"3181","locationName":"LEHIGH VALLEY - HD","abbreviation":"QLEL","address":"1000 WILLOWBROOK ROAD, NORTHAMPTON, PA, 18067","phone":"(484) 271-7288","latitude":40.671106,"longitude":-75.450963,"timeZone":"","locationType":"Station","district":"DELAWARE VALLEY"},{"locationId":"5087","locationName":"EDISON FXSP","abbreviation":"EDNJ","address":"200 NIXON LANE, EDISON, NJ, 8837","phone":"(732) 623-2334","latitude":40.495833,"longitude":-74.362721,"timeZone":"","locationType":"Smartpost Hub","district":"DELAWARE VALLEY"},{"locationId":"59","locationName":"NORTH STRATFORD","abbreviation":"NSRF","address":"495 LORDSHIP BOULEVARD, STRATFORD, CT, 6615","phone":"(475) 476-6367","latitude":41.16867,"longitude":-73.152247,"timeZone":"","locationType":"Station","district":"NEW YORK METRO"},{"locationId":"65","locationName":"WEST STRATFORD","abbreviation":"WSTR","address":"550 LONG BEACH BLVD, STRATFORD, CT, 6615","phone":"(203) 212-5118","latitude":41.165318,"longitude":-73.157867,"timeZone":"","locationType":"Station","district":"NEW YORK METRO"},{"locationId":"66","locationName":"NORTH HAVEN","abbreviation":"NHVN","address":"29 TOELLES ROAD, WALLINGFORD, CT, 6492","phone":"(203) 949-8027","latitude":41.428224,"longitude":-72.842891,"timeZone":"","locationType":"Station","district":"NEW YORK METRO"},{"locationId":"67","locationName":"NEWARK","abbreviation":"NEWK","address":"173 DOREMUS AVE #269, NEWARK, NJ, 7105","phone":"","latitude":40.727402,"longitude":-74.122767,"timeZone":"","locationType":"Station","district":"NEW YORK METRO"},{"locationId":"68","locationName":"STRATFORD","abbreviation":"STRA","address":"825 LORDSHIP BLVD, STRATFORD, CT, 6615","phone":"(203) 381-4000","latitude":41.165504,"longitude":-73.146471,"timeZone":"","locationType":"Station","district":"NEW YORK METRO"},{"locationId":"69","locationName":"ELMSFORD","abbreviation":"ELMS","address":"300 WATERSIDE DRIVE, ELMSFORD, NY, 10523","phone":"(914) 347-6200","latitude":41.069236,"longitude":-73.819495,"timeZone":"","locationType":"Station","district":"NEW YORK METRO"},{"locationId":"72","locationName":"METUCHEN","abbreviation":"METU","address":"25-53 TALMADGE ROAD, EDISON, NJ, 8817","phone":"(732) 287-7850","latitude":40.529062,"longitude":-74.388925,"timeZone":"","locationType":"Hub","district":"NEW YORK METRO"},{"locationId":"73","locationName":"METUCHEN NCPC","abbreviation":"METX","address":"25-53 TALMADGE ROAD, EDISON, NJ, 8817","phone":"(732) 287-7850","latitude":40.529062,"longitude":-74.388925,"timeZone":"","locationType":"Station","district":"NEW YORK METRO"},{"locationId":"83","locationName":"NEWARK RSF","abbreviation":"NWRS","address":"173 DOREMUS AVE #269, NEWARK, NJ, 7105","phone":"","latitude":40.727402,"longitude":-74.122767,"timeZone":"","locationType":"Station","district":"NEW YORK METRO"},{"locationId":"88","locationName":"WOODBRIDGE LOCAL","abbreviation":"LWOO","address":"6000 RIVERSIDE DR, KEASBEY, NJ, 8832","phone":"(732) 512-5540","latitude":40.506997,"longitude":-74.325295,"timeZone":"","locationType":"Hub Local","district":"NEW YORK METRO"},{"locationId":"89","locationName":"WOODBRIDGE","abbreviation":"WOOD","address":"6000 RIVERSIDE DR, KEASBEY, NJ, 8832","phone":"(732) 512-5528","latitude":40.506997,"longitude":-74.325295,"timeZone":"","locationType":"Hub","district":"NEW YORK METRO"},{"locationId":"100","locationName":"NEW YORK","abbreviation":"NYNY","address":"300 MASPETH AVE., BROOKLYN, NY, 11211","phone":"(718) 782-4848","latitude":40.717392,"longitude":-73.93184,"timeZone":"","locationType":"Station","district":"NEW YORK METRO"},{"locationId":"103","locationName":"SUNNYSIDE","abbreviation":"SUNY","address":"46-06 57TH AVENUE, MASPETH, NY, 11378","phone":"(718) 310-4100","latitude":40.725508,"longitude":-73.924288,"timeZone":"","locationType":"Station","district":"NEW YORK METRO"},{"locationId":"104","locationName":"BRONX","abbreviation":"BRNX","address":"635 ZEREGA AVENUE, BRONX, NY, 10473","phone":"(718) 824-0008","latitude":40.820387,"longitude":-73.843847,"timeZone":"","locationType":"Station","district":"NEW YORK METRO"},{"locationId":"106","locationName":"WHITE PLAINS","abbreviation":"WTPL","address":"109 FAIRVIEW PARK DRIVE, ELMSFORD, NY, 10523","phone":"(914) 345-2445","latitude":41.067539,"longitude":-73.82153,"timeZone":"","locationType":"Station","district":"NEW YORK METRO"},{"locationId":"107","locationName":"YONKERS","abbreviation":"YONK","address":"10 HERRMANN PLACE, YONKERS, NY, 10710","phone":"(914) 787-4900","latitude":40.955053,"longitude":-73.857437,"timeZone":"","locationType":"Station","district":"NEW YORK METRO"},{"locationId":"108","locationName":"SPRING VALLEY","abbreviation":"SPVY","address":"9 AL FOXIE WAY, BLAUVELT, NY, 10913","phone":"(845) 267-3900","latitude":41.08142,"longitude":-73.955023,"timeZone":"","locationType":"Station","district":"NEW YORK METRO"},{"locationId":"110","locationName":"CANARSIE","abbreviation":"CANR","address":"570 E. 108th STREET, BROOKLYN, NY, 11236","phone":"(718) 688-7800","latitude":40.652246,"longitude":-73.896677,"timeZone":"","locationType":"Station","district":"NEW YORK METRO"},{"locationId":"111","locationName":"LAWRENCE","abbreviation":"LWRC","address":"1 JOHNSON ROAD, LAWRENCE, NY, 11559","phone":"(516) 239-4940","latitude":40.629066,"longitude":-73.743878,"timeZone":"","locationType":"Station","district":"NEW YORK METRO"},{"locationId":"114","locationName":"QUEENS","abbreviation":"QUEE","address":"29-01 BORDEN AVE, LONG ISLAND CITY, NY, 11101","phone":"(718) 472-6200","latitude":40.738988,"longitude":-73.939429,"timeZone":"","locationType":"Station","district":"NEW YORK METRO"},{"locationId":"115","locationName":"GARDEN CITY","abbreviation":"GARD","address":"160 GRUMMAN ROAD WEST, BETHPAGE, NY, 11714","phone":"(516) 576-7058","latitude":40.744743,"longitude":-73.491885,"timeZone":"","locationType":"Station","district":"NEW YORK METRO"},{"locationId":"116","locationName":"NORTH BETHPAGE","abbreviation":"NBTH","address":"1 AEROSPACE BOULEVARD, BETHPAGE, NY, 11714","phone":"(516) 688-2229","latitude":40.756154,"longitude":-73.49452,"timeZone":"","locationType":"Station","district":"NEW YORK METRO"},{"locationId":"117","locationName":"LONG ISLAND","abbreviation":"LNGI","address":"5901 VETERANS MEMORIAL HWY, HOLBROOK, NY, 11741","phone":"(631) 218-4430","latitude":40.773547,"longitude":-73.062819,"timeZone":"","locationType":"Station","district":"NEW YORK METRO"},{"locationId":"125","locationName":"NEWBURGH","abbreviation":"NWBG","address":"3 ENTERPRISE DRIVE, NEWBURGH, NY, 12550","phone":"(845) 567-3648","latitude":41.51293,"longitude":-74.11524,"timeZone":"","locationType":"Station","district":"NEW YORK METRO"},{"locationId":"127","locationName":"MONTGOMERY","abbreviation":"MOTG","address":"201 NEELYTOWN ROAD, MONTGOMERY, NY, 12549","phone":"(845) 457-6500","latitude":41.497842,"longitude":-74.22634,"timeZone":"","locationType":"Station","district":"NEW YORK METRO"},{"locationId":"694","locationName":"OUTSIDE DELIVERY","abbreviation":"OTDV","address":"37-18 57TH STREET, FLUSHING, NY, 11377","phone":"(212) 989-1919","latitude":40.750021,"longitude":-73.905542,"timeZone":"","locationType":"Station","district":"NEW YORK METRO"},{"locationId":"3059","locationName":"NORTH STRATFORD - HD","abbreviation":"QNSR","address":"495 LORDSHIP BOULEVARD, STRATFORD, CT, 6615","phone":"(475) 476-6367","latitude":41.16867,"longitude":-73.152247,"timeZone":"","locationType":"Station","district":"NEW YORK METRO"},{"locationId":"3065","locationName":"WEST STRATFORD - HD","abbreviation":"QWSR","address":"550 LONG BEACH BLVD, STRATFORD, CT, 6615","phone":"(203) 212-5118","latitude":41.165318,"longitude":-73.157867,"timeZone":"","locationType":"Station","district":"NEW YORK METRO"},{"locationId":"3066","locationName":"NORTH HAVEN - HD","abbreviation":"QNHV","address":"29 TOELLES ROAD, WALLINGFORD, CT, 6492","phone":"(203) 949-8027","latitude":41.428224,"longitude":-72.842891,"timeZone":"","locationType":"Station","district":"NEW YORK METRO"},{"locationId":"3067","locationName":"NEWARK - HD","abbreviation":"QNWK","address":"173 DOREMUS AVE #269, NEWARK, NJ, 7105","phone":"","latitude":40.727402,"longitude":-74.122767,"timeZone":"","locationType":"Station","district":"NEW YORK METRO"},{"locationId":"3068","locationName":"STRATFORD - HD","abbreviation":"QSTF","address":"825 LORDSHIP BLVD, STRATFORD, CT, 6615","phone":"(203) 381-4000","latitude":41.165504,"longitude":-73.146471,"timeZone":"","locationType":"Station","district":"NEW YORK METRO"},{"locationId":"3069","locationName":"ELMSFORD - HD","abbreviation":"QELM","address":"300 WATERSIDE DRIVE, ELMSFORD, NY, 10523","phone":"(914) 347-6200","latitude":41.069236,"longitude":-73.819495,"timeZone":"","locationType":"Station","district":"NEW YORK METRO"},{"locationId":"3077","locationName":"METUCHEN NCPC SS - HD","abbreviation":"QMEC","address":"25-53 TALMADGE ROAD, EDISON, NJ, 8817","phone":"(732) 287-7850","latitude":40.529062,"longitude":-74.388925,"timeZone":"","locationType":"Sub Station","district":"NEW YORK METRO"},{"locationId":"3088","locationName":"WOODBRIDGE ANNEX - HD","abbreviation":"QLWO","address":"6000 RIVERSIDE DR, KEASBEY, NJ, 8832","phone":"(732) 512-5540","latitude":40.506997,"longitude":-74.325295,"timeZone":"","locationType":"Annex","district":"NEW YORK METRO"},{"locationId":"3100","locationName":"NEW YORK - HD","abbreviation":"QNYC","address":"300 MASPETH AVE., BROOKLYN, NY, 11211","phone":"(718) 782-4848","latitude":40.717392,"longitude":-73.93184,"timeZone":"","locationType":"Station","district":"NEW YORK METRO"},{"locationId":"3101","locationName":"BROOKLYN - HD","abbreviation":"QBKN","address":"100 MORGAN AVENUE, BROOKLYN, NY, 11237","phone":"(718) 497-2731","latitude":40.708375,"longitude":-73.932307,"timeZone":"","locationType":"Station","district":"NEW YORK METRO"},{"locationId":"3102","locationName":"MANHATTAN - HD","abbreviation":"QMHT","address":"83-15 24TH AVENUE, EAST ELMHURST, NY, 11370","phone":"(718) 476-6030","latitude":40.765496,"longitude":-73.885099,"timeZone":"","locationType":"Station","district":"NEW YORK METRO"},{"locationId":"3103","locationName":"SUNNYSIDE - HD","abbreviation":"QSUN","address":"46-06 57TH AVENUE, MASPETH, NY, 11378","phone":"(718) 310-4100","latitude":40.725508,"longitude":-73.924288,"timeZone":"","locationType":"Station","district":"NEW YORK METRO"},{"locationId":"3104","locationName":"WHITE PLAINS - HD","abbreviation":"QWTP","address":"109 FAIRVIEW PARK DRIVE, ELMSFORD, NY, 10523","phone":"(914) 345-2445","latitude":41.067539,"longitude":-73.82153,"timeZone":"","locationType":"Station","district":"NEW YORK METRO"},{"locationId":"3106","locationName":"BRONX - HD","abbreviation":"QBRX","address":"635 ZEREGA AVENUE, BRONX, NY, 10473","phone":"(718) 824-0008","latitude":40.820387,"longitude":-73.843847,"timeZone":"","locationType":"Station","district":"NEW YORK METRO"},{"locationId":"3107","locationName":"YONKERS - HD","abbreviation":"QYON","address":"10 HERRMANN PLACE, YONKERS, NY, 10710","phone":"(914) 787-4900","latitude":40.955053,"longitude":-73.857437,"timeZone":"","locationType":"Station","district":"NEW YORK METRO"},{"locationId":"3108","locationName":"SPRING VALLEY - HD","abbreviation":"QSPV","address":"9 AL FOXIE WAY, BLAUVELT, NY, 10913","phone":"(845) 267-3900","latitude":41.08142,"longitude":-73.955023,"timeZone":"","locationType":"Station","district":"NEW YORK METRO"},{"locationId":"3109","locationName":"NEWBURGH - HD","abbreviation":"QNWB","address":"3 ENTERPRISE DRIVE, NEWBURGH, NY, 12550","phone":"(845) 567-3648","latitude":41.51293,"longitude":-74.11524,"timeZone":"","locationType":"Station","district":"NEW YORK METRO"},{"locationId":"3110","locationName":"CANARSIE - HD","abbreviation":"QCNR","address":"570 E. 108th STREET, BROOKLYN, NY, 11236","phone":"(718) 688-7800","latitude":40.652246,"longitude":-73.896677,"timeZone":"","locationType":"Station","district":"NEW YORK METRO"},{"locationId":"3111","locationName":"LAWRENCE - HD","abbreviation":"QLWR","address":"1 JOHNSON ROAD, LAWRENCE, NY, 11559","phone":"(516) 239-4940","latitude":40.629066,"longitude":-73.743878,"timeZone":"","locationType":"Station","district":"NEW YORK METRO"},{"locationId":"3112","locationName":"EAST BROOKLYN - HD","abbreviation":"QEBK","address":"830 FOUNTAIN AVENUE, BROOKLYN, NY, 11239","phone":"(718) 348-2880","latitude":40.659339,"longitude":-73.868352,"timeZone":"","locationType":"Station","district":"NEW YORK METRO"},{"locationId":"3114","locationName":"WOODSIDE - HD","abbreviation":"QWDS","address":"24-25 BROOKLYN QUEENS EXPRSS W, WOODSIDE, NY, 11377","phone":"(718) 932-1681","latitude":40.760516,"longitude":-73.898205,"timeZone":"","locationType":"Station","district":"NEW YORK METRO"},{"locationId":"3115","locationName":"GARDEN CITY - HD","abbreviation":"QGRC","address":"160 GRUMMAN ROAD WEST, BETHPAGE, NY, 11714","phone":"(516) 576-7058","latitude":40.744743,"longitude":-73.491885,"timeZone":"","locationType":"Station","district":"NEW YORK METRO"},{"locationId":"3116","locationName":"NORTH BETHPAGE - HD","abbreviation":"QNBT","address":"1 AEROSPACE BOULEVARD, BETHPAGE, NY, 11714","phone":"(516) 688-2229","latitude":40.756154,"longitude":-73.49452,"timeZone":"","locationType":"Station","district":"NEW YORK METRO"},{"locationId":"3117","locationName":"BETHPAGE - HD","abbreviation":"QBTH","address":"700 HICKSVILLE ROAD, BETHPAGE, NY, 11714","phone":"(516) 576-0170","latitude":40.744162,"longitude":-73.49605,"timeZone":"","locationType":"Station","district":"NEW YORK METRO"},{"locationId":"3118","locationName":"BOHEMIA - HD","abbreviation":"QBOH","address":"100 ORVILLE DRIVE, BOHEMIA, NY, 11716","phone":"(631) 244-3800","latitude":40.77324,"longitude":-73.102995,"timeZone":"","locationType":"Station","district":"NEW YORK METRO"},{"locationId":"3119","locationName":"WEST BETHPAGE -HD","abbreviation":"QWBT","address":"999 SOUTH OYSTER BAY ROAD, BETHPAGE, NY, 11714","phone":"(516) 688-6200","latitude":40.756274,"longitude":-73.498563,"timeZone":"","locationType":"Station","district":"NEW YORK METRO"},{"locationId":"3120","locationName":"LONG ISLAND - HD","abbreviation":"QLNI","address":"5901 VETERANS MEMORIAL HWY, HOLBROOK, NY, 11741","phone":"(631) 218-4430","latitude":40.773547,"longitude":-73.062819,"timeZone":"","locationType":"Station","district":"NEW YORK METRO"},{"locationId":"3123","locationName":"EAST WILLIAMSBURG - HD","abbreviation":"QEWB","address":"46-81 METROPOLITAN AVE, RIDGEWOOD, NY, 11385","phone":"","latitude":40.714538,"longitude":-73.920913,"timeZone":"","locationType":"Station","district":"NEW YORK METRO"},{"locationId":"3125","locationName":"QUEENS - HD","abbreviation":"QQUE","address":"29-01 BORDEN AVE, LONG ISLAND CITY, NY, 11101","phone":"(718) 472-6200","latitude":40.738988,"longitude":-73.939429,"timeZone":"","locationType":"Station","district":"NEW YORK METRO"},{"locationId":"3127","locationName":"MONTGOMERY - HD","abbreviation":"QMOT","address":"201 NEELYTOWN ROAD, MONTGOMERY, NY, 12549","phone":"(845) 457-6500","latitude":41.497842,"longitude":-74.22634,"timeZone":"","locationType":"Station","district":"NEW YORK METRO"},{"locationId":"11","locationName":"SPRINGFIELD","abbreviation":"SPFD","address":"140 LONCZAK DRIVE, CHICOPEE, MA, 1022","phone":"(413) 378-5940","latitude":42.186028,"longitude":-72.553005,"timeZone":"","locationType":"Station","district":"NORTHEAST"},{"locationId":"13","locationName":"NORTHBOROUGH","abbreviation":"NRTH","address":"1 BEEMAN ROAD, NORTHBOROUGH, MA, 1532","phone":"(508) 393-6599","latitude":42.311659,"longitude":-71.606883,"timeZone":"","locationType":"Station","district":"NORTHEAST"},{"locationId":"16","locationName":"WORCESTER","abbreviation":"WORC","address":"100 PINE HILL DRIVE, BOYLSTON, MA, 1505","phone":"(774) 515-6000","latitude":42.32659,"longitude":-71.73016,"timeZone":"","locationType":"Station","district":"NORTHEAST"},{"locationId":"17","locationName":"NATICK","abbreviation":"NATK","address":"30 SUPERIOR DRIVE, NATICK, MA, 1760","phone":"(508) 652-1300","latitude":42.304293,"longitude":-71.375679,"timeZone":"","locationType":"Station","district":"NORTHEAST"},{"locationId":"18","locationName":"WILMINGTON","abbreviation":"WLMG","address":"45 INDUSTRIAL WAY, WILMINGTON, MA, 1887","phone":"(978) 322-1600","latitude":42.528622,"longitude":-71.140989,"timeZone":"","locationType":"Station","district":"NORTHEAST"},{"locationId":"20","locationName":"NORTH BILLERICA","abbreviation":"NBIL","address":"90 SALEM ROAD, NORTH BILLERICA, MA, 1862","phone":"(978) 625-5120","latitude":42.576032,"longitude":-71.266888,"timeZone":"","locationType":"Station","district":"NORTHEAST"},{"locationId":"21","locationName":"ANDOVER","abbreviation":"ANDO","address":"375 BALLARDVALE ST., WILMINGTON, MA, 1887","phone":"(978) 988-9106","latitude":42.60934,"longitude":-71.157806,"timeZone":"","locationType":"Station","district":"NORTHEAST"},{"locationId":"22","locationName":"QUINCY","abbreviation":"QUIC","address":"520 COMMANDER SHEA BLVD, QUINCY, MA, 2171","phone":"(617) 691-1161","latitude":42.29336,"longitude":-71.03339,"timeZone":"","locationType":"Station","district":"NORTHEAST"},{"locationId":"24","locationName":"BROCKTON","abbreviation":"BRKT","address":"985 BELMONT STREET, BROCKTON, MA, 2301","phone":"(508) 559-2068","latitude":42.06452,"longitude":-71.05723,"timeZone":"","locationType":"Station","district":"NORTHEAST"},{"locationId":"25","locationName":"MARTHAS VINEYARD","abbreviation":"MVYD","address":"19 NORTH LINE ROAD, EDGARTOWN, MA, 2539","phone":"(508) 923-6157","latitude":41.392745,"longitude":-70.60646,"timeZone":"","locationType":"Sub Station","district":"NORTHEAST"},{"locationId":"26","locationName":"CAPE COD","abbreviation":"CAPE","address":"17 COWAN DRIVE, MIDDLEBORO, MA, 2346","phone":"(508) 923-6157","latitude":41.813568,"longitude":-70.799025,"timeZone":"","locationType":"Station","district":"NORTHEAST"},{"locationId":"27","locationName":"NANTUCKET","abbreviation":"NNTK","address":"9 NANCY ANN LANE, NANTUCKET, MA, 2554","phone":"(508) 923-6157","latitude":41.260088,"longitude":-70.076731,"timeZone":"","locationType":"Sub Station","district":"NORTHEAST"},{"locationId":"28","locationName":"SEEKONK","abbreviation":"SEEK","address":"1977 FALL RIVER AVENUE, SEEKONK, MA, 2771","phone":"(508) 343-7220","latitude":41.7777,"longitude":-71.297861,"timeZone":"","locationType":"Station","district":"NORTHEAST"},{"locationId":"29","locationName":"PROVIDENCE","abbreviation":"PROV","address":"29 GREEN EARTH WAY, JOHNSTON, RI, 2919","phone":"(401) 275-0643","latitude":41.796972,"longitude":-71.51483,"timeZone":"","locationType":"Station","district":"NORTHEAST"},{"locationId":"31","locationName":"MANCHESTER","abbreviation":"MANC","address":"44 INDUSTRIAL DRIVE, LONDONDERRY, NH, 3053","phone":"(603) 621-2700","latitude":42.911602,"longitude":-71.432738,"timeZone":"","locationType":"Station","district":"NORTHEAST"},{"locationId":"34","locationName":"KEENE","abbreviation":"KEEN","address":"40 COACHMAN ROAD, WEST CHESTERFIELD, NH, 3466","phone":"(603) 256-8793","latitude":42.89025,"longitude":-72.486725,"timeZone":"","locationType":"Station","district":"NORTHEAST"},{"locationId":"35","locationName":"LITTLETON","abbreviation":"LITT","address":"883 INDUSTRIAL PARK DRIVE, LITTLETON, NH, 3561","phone":"(603) 444-2567","latitude":44.291199,"longitude":-71.799039,"timeZone":"","locationType":"Station","district":"NORTHEAST"},{"locationId":"37","locationName":"LEBANON","abbreviation":"LEBN","address":"30 PLAZA HEIGHTS ROAD, WEST LEBANON, NH, 3784","phone":"(603) 298-2500","latitude":43.625087,"longitude":-72.317795,"timeZone":"","locationType":"Station","district":"NORTHEAST"},{"locationId":"40","locationName":"BIDDEFORD","abbreviation":"BIDD","address":"1 BAKERS WAY, BIDDEFORD, ME, 4005","phone":"(207) 294-3900","latitude":43.473388,"longitude":-70.484888,"timeZone":"","locationType":"Station","district":"NORTHEAST"},{"locationId":"41","locationName":"PORTLAND","abbreviation":"PTLD","address":"115 INDUSTRIAL PARK ROAD, ROPEMAKERS INDUSTRIAL PARK, SACO, ME, 4072","phone":"(207) 282-5416","latitude":43.539962,"longitude":-70.437965,"timeZone":"","locationType":"Station","district":"NORTHEAST"},{"locationId":"43","locationName":"AUGUSTA","abbreviation":"AUME","address":"380 RIVER ROAD, LEWISTON, ME, 4240","phone":"(207) 784-8630","latitude":44.05414,"longitude":-70.18732,"timeZone":"","locationType":"Station","district":"NORTHEAST"},{"locationId":"44","locationName":"BANGOR","abbreviation":"BANG","address":"27 MACK LANE, BANGOR, ME, 4401","phone":"(207) 848-4100","latitude":44.776952,"longitude":-68.87301,"timeZone":"","locationType":"Station","district":"NORTHEAST"},{"locationId":"47","locationName":"HOULTON","abbreviation":"HLTN","address":"191 LUDLOW ROAD, HOULTON, ME, 4730","phone":"(207) 532-2859","latitude":46.14137,"longitude":-67.859812,"timeZone":"","locationType":"Station","district":"NORTHEAST"},{"locationId":"60","locationName":"HARTFORD LOCAL","abbreviation":"HARL","address":"350 RUBY ROAD, WILLINGTON, CT, 6279","phone":"(860) 684-8900","latitude":41.917032,"longitude":-72.257851,"timeZone":"","locationType":"Hub Local","district":"NORTHEAST"},{"locationId":"61","locationName":"HARTFORD","abbreviation":"HART","address":"350 RUBY ROAD, WILLINGTON, CT, 6279","phone":"(860) 684-8960","latitude":41.917032,"longitude":-72.257851,"timeZone":"","locationType":"Hub","district":"NORTHEAST"},{"locationId":"62","locationName":"MIDDLETOWN","abbreviation":"MIDD","address":"49 FEDEX DRIVE, MIDDLETOWN, CT, 6457","phone":"(860) 807-4550","latitude":41.598406,"longitude":-72.71778,"timeZone":"","locationType":"Hub","district":"NORTHEAST"},{"locationId":"63","locationName":"WINDSOR","abbreviation":"WNDS","address":"759 RAINBOW ROAD, WINDSOR, CT, 6095","phone":"(860) 687-9921","latitude":41.916682,"longitude":-72.714652,"timeZone":"","locationType":"Station","district":"NORTHEAST"},